,City Name,Cloudiness,Country,Date,Humidity,Latitude,Longitude,Max Temp.,Wind Speed
0,Carnarvon,0,AU,1590698845,65,-24.87,113.63,63.45,9.91
1,Qaanaaq,78,GL,1590698845,92,77.48,-69.36,32.32,1.45
2,The Valley,99,AI,1590698846,78,18.22,-63.06,82.99,4.0
3,Ushuaia,100,AR,1590698805,56,-54.8,-68.3,41.0,11.41
4,Tessalit,74,ML,1590698846,28,20.2,1.01,87.64,3.78
5,Hasaki,20,JP,1590698846,93,35.73,140.83,57.2,3.36
6,Tuktoyaktuk,20,CA,1590698846,62,69.45,-133.04,51.8,10.29
7,Leningradskiy,0,RU,1590698846,84,69.38,178.42,36.18,4.81
8,Jamestown,90,US,1590698584,83,42.1,-79.24,72.0,20.8
9,Mataura,58,NZ,1590698846,89,-46.19,168.86,42.46,1.68
10,Cabra,0,ES,1590698847,52,37.47,-4.44,73.99,8.5
11,Ahipara,100,NZ,1590698847,90,-35.17,173.17,60.67,3.0
12,Haines Junction,95,CA,1590698847,27,60.75,-137.51,65.05,7.56
13,Jequié,83,BR,1590698847,77,-13.86,-40.08,71.64,4.34
14,Guibéroua,100,CI,1590698847,97,6.24,-6.17,75.06,3.53
15,Srednekolymsk,0,RU,1590698847,43,67.45,153.68,51.35,21.03
16,Banda Aceh,100,ID,1590698847,77,5.56,95.32,80.8,3.09
17,Vaini,40,TO,1590698847,88,-21.2,-175.2,75.2,4.7
18,Constitución,100,CL,1590698848,85,-35.33,-72.42,56.3,0.58
19,Xichang,86,CN,1590698848,79,27.9,102.26,51.76,0.98
20,Dikson,99,RU,1590698848,99,73.51,80.55,32.54,9.28
21,Nikolskoye,95,RU,1590698848,66,59.7,30.79,53.6,2.24
22,Bluff,61,NZ,1590698848,85,-46.6,168.33,49.14,7.49
23,Dingle,76,PH,1590698849,86,11.0,122.67,78.22,4.34
24,Tautira,20,PF,1590698849,74,-17.73,-149.15,84.2,5.82
25,Sítio Novo do Tocantins,79,BR,1590698849,91,-5.52,-47.46,77.38,1.74
26,Bismarck,1,US,1590698849,26,46.81,-100.78,71.6,28.86
27,Hobart,75,AU,1590698849,76,-42.88,147.33,55.99,5.82
28,Hithadhoo,100,MV,1590698849,85,-0.6,73.08,79.66,20.27
29,Lorengau,76,PG,1590698849,77,-2.02,147.27,81.03,3.49
30,Albany,95,US,1590698829,67,42.6,-73.97,78.01,10.36
31,Sitka,75,US,1590698850,48,57.05,-135.33,60.8,13.87
32,Severo-Kuril'sk,100,RU,1590698850,93,50.68,156.12,37.96,18.5
33,Port Hedland,9,AU,1590698850,88,-20.32,118.57,62.6,6.93
34,Rikitea,39,PF,1590698850,84,-23.12,-134.97,76.82,7.58
35,Vasterhaninge,54,SE,1590698850,40,59.12,18.1,50.0,4.79
36,Clyde River,75,CA,1590698850,92,70.47,-68.59,28.4,14.99
37,Albanel,75,CA,1590698851,31,48.88,-72.45,91.4,16.11
38,Toowoomba,40,AU,1590698851,100,-27.55,151.97,54.0,4.7
39,Along,92,IN,1590698851,87,28.17,94.77,64.47,2.17
40,Pacific Grove,31,US,1590698717,90,36.62,-121.92,60.01,7.0
41,Chokurdakh,91,RU,1590698851,40,70.63,147.92,53.47,18.59
42,Fairbanks,90,US,1590698851,45,64.84,-147.72,64.99,5.97
43,Juneau,90,US,1590698719,58,58.3,-134.42,55.4,13.87
44,Barrow,20,US,1590698851,73,71.29,-156.79,32.0,5.82
45,Yellowknife,20,CA,1590698852,36,62.46,-114.35,48.2,5.82
46,Talnakh,75,RU,1590698852,84,69.49,88.4,35.6,6.71
47,Khedbrahma,81,IN,1590698645,74,24.03,73.05,80.96,8.21
48,Burns Lake,100,CA,1590698743,31,54.23,-125.75,67.3,4.83
49,Yulara,0,AU,1590698852,57,-25.24,130.99,50.0,6.93
50,Poli,20,TZ,1590698852,82,-3.33,36.8,69.8,11.41
51,Punta Arenas,85,CL,1590698852,74,-53.15,-70.92,41.0,13.87
52,Bredasdorp,100,ZA,1590698852,68,-34.53,20.04,64.4,21.92
53,Abapó,1,BO,1590698853,37,-18.83,-63.47,77.29,8.59
54,Kapaa,40,US,1590698853,69,22.08,-159.32,82.0,11.41
55,Salalah,90,OM,1590698853,94,17.02,54.09,78.8,8.05
56,Khatanga,100,RU,1590698853,95,71.97,102.5,34.65,13.82
57,Palu,100,ID,1590698853,81,-0.89,119.87,74.79,2.13
58,Cape Town,90,ZA,1590698586,93,-33.93,18.42,64.0,13.87
59,Alexandria,40,EG,1590698837,64,31.22,29.96,68.0,8.05
60,Viedma,100,AR,1590698570,58,-40.81,-63.0,53.26,8.79
61,East London,100,ZA,1590698854,38,-33.02,27.91,69.57,7.4
62,Matagami,90,CA,1590698849,93,49.75,-77.63,66.2,8.05
63,Dabakala,100,CI,1590698854,77,8.37,-4.43,80.17,4.21
64,Busselton,0,AU,1590698854,79,-33.65,115.33,60.01,18.61
65,West Wendover,1,US,1590698854,25,40.74,-114.07,84.2,10.29
66,Shimokizukuri,32,JP,1590698854,90,40.81,140.39,60.01,3.67
67,Kaitangata,48,NZ,1590698854,90,-46.28,169.85,44.01,1.01
68,Airai,100,TL,1590698855,100,-8.93,125.41,57.38,2.91
69,Pārsābād,1,IR,1590698824,72,39.65,47.92,62.6,4.81
70,Alofi,40,NU,1590698855,83,-19.06,-169.92,78.8,6.93
71,Dunmore East,45,IE,1590698855,72,52.15,-6.99,60.8,5.82
72,Weihe,100,CN,1590698855,86,33.0,105.32,54.32,1.3
73,Vigrestad,0,NO,1590698855,71,58.57,5.7,50.0,8.05
74,Saint George,1,US,1590698830,11,37.1,-113.58,100.99,3.36
75,Souillac,40,MU,1590698856,83,-20.52,57.52,75.2,11.41
76,Waipawa,8,NZ,1590698856,87,-41.41,175.52,51.01,2.17
77,Provideniya,90,RU,1590698856,94,64.38,-173.3,35.6,20.13
78,Maryville,75,US,1590698856,65,35.76,-83.97,79.0,4.7
79,Tezu,86,IN,1590698856,77,27.92,96.17,69.31,3.27
80,Cabo San Lucas,5,MX,1590698856,42,22.89,-109.91,86.0,10.29
81,Port Alfred,84,ZA,1590698856,76,-33.59,26.89,64.99,4.0
82,Vega de Alatorre,91,MX,1590698856,71,20.03,-96.63,87.08,10.45
83,Portland,40,US,1590698816,32,45.52,-122.68,89.01,10.29
84,Hilo,20,US,1590698857,58,19.73,-155.09,82.4,10.29
85,Alyangula,71,AU,1590698857,93,-13.85,136.42,60.8,10.89
86,Igra,27,RU,1590698857,88,57.56,53.05,50.14,5.08
87,Ribeira Grande,20,PT,1590698857,55,38.52,-28.7,62.6,13.87
88,Baculin,73,PH,1590698857,71,7.45,126.58,78.67,4.88
89,Virtsu,4,EE,1590698857,77,58.57,23.51,46.99,5.01
90,Wanning,83,CN,1590698858,88,18.8,110.4,79.2,5.53
91,Vila Velha,20,BR,1590698685,64,-20.33,-40.29,73.4,11.41
92,Torbay,90,CA,1590698858,93,47.67,-52.73,59.0,31.09
93,Mehamn,70,NO,1590698858,75,71.04,27.85,42.85,19.91
94,Mogadishu,8,SO,1590698858,85,2.04,45.34,80.47,15.77
95,Sawākin,0,SD,1590698858,44,19.11,37.33,85.86,6.8
96,Ajdabiya,0,LY,1590698858,68,30.76,20.23,63.48,12.55
97,Saint Stephen,5,GB,1590698858,51,50.33,-4.9,59.0,13.87
98,Butembo,100,CD,1590698859,83,0.15,29.28,62.11,4.21
99,Kongsberg,4,NO,1590698859,42,59.67,9.65,51.01,2.44
100,Hibbing,1,US,1590698859,26,47.43,-92.94,71.6,11.41
101,Ponta do Sol,49,PT,1590698707,73,32.67,-17.1,66.0,4.0
102,Baykit,2,RU,1590698859,73,61.67,96.37,38.93,1.77
103,Elko,1,US,1590698860,20,41.0,-115.5,87.8,6.93
104,New Norfolk,99,AU,1590698860,92,-42.78,147.06,51.01,4.16
105,São Filipe,0,CV,1590698860,67,14.9,-24.5,76.73,6.4
106,Atuona,67,PF,1590698860,75,-9.8,-139.03,80.69,14.79
107,Carutapera,41,BR,1590698860,82,-1.2,-46.02,79.63,7.74
108,Coquimbo,69,CL,1590698860,63,-29.95,-71.34,64.4,8.05
109,Kruisfontein,100,ZA,1590698860,60,-34.0,24.73,60.85,10.27
110,Moose Factory,1,CA,1590698861,61,51.26,-80.61,77.0,11.41
111,Bonnyville,75,CA,1590698861,41,54.27,-110.73,59.0,5.82
112,Longyearbyen,75,SJ,1590698861,80,78.22,15.64,39.2,4.7
113,Zhezkazgan,0,KZ,1590698861,31,47.8,67.71,64.27,10.02
114,Okha,100,RU,1590698861,86,53.57,142.95,37.18,7.36
115,Zaria,96,NG,1590698861,31,11.11,7.72,85.01,3.98
116,Haverhill,90,US,1590698861,65,42.78,-71.08,81.0,12.75
117,St. George's,20,GD,1590698862,74,12.06,-61.75,86.0,18.34
118,Grindavik,90,IS,1590698862,100,63.84,-22.43,48.2,21.92
119,Luís Correia,21,BR,1590698569,84,-2.88,-41.67,80.44,8.34
120,Dangara,0,IN,1590698862,28,29.68,75.89,87.48,15.86
121,Puerto Ayora,75,EC,1590698862,65,-0.74,-90.35,80.6,4.7
122,Port Elizabeth,100,ZA,1590698591,60,-33.92,25.57,63.99,12.12
123,Hermanus,100,ZA,1590698862,96,-34.42,19.23,57.0,11.01
124,Al Bardīyah,0,LY,1590698862,70,31.76,25.09,64.29,10.96
125,Mossamedes,6,AO,1590698863,57,-15.2,12.15,74.48,9.15
126,Honningsvåg,53,NO,1590698863,74,70.98,25.97,43.61,21.12
127,Tuatapere,89,NZ,1590698863,85,-46.13,167.68,47.84,4.54
128,Lagoa,0,PT,1590698863,60,39.05,-27.98,59.72,8.39
129,Nelson Bay,40,AU,1590698862,93,-32.72,152.15,54.0,8.05
130,Duncan,40,US,1590698863,51,34.5,-97.96,82.0,9.17
131,Olafsvik,100,IS,1590698863,96,64.89,-23.71,47.28,14.09
132,Margate,0,GB,1590698863,74,51.38,1.39,57.0,5.99
133,Pentecoste,65,BR,1590698864,77,-3.79,-39.27,82.99,17.0
134,Sol'-Iletsk,0,RU,1590698864,82,51.16,54.99,59.61,16.53
135,Fuling,94,CN,1590698864,82,29.7,107.39,63.79,2.01
136,Bengkulu,100,ID,1590698864,86,-3.8,102.27,76.5,3.4
137,Bethel,90,US,1590698864,94,41.37,-73.41,71.01,10.29
138,Thompson,90,CA,1590698569,80,55.74,-97.86,39.2,8.05
139,Komoro,2,JP,1590698865,99,36.32,138.43,48.0,1.41
140,Severnoye,74,RU,1590698865,67,56.35,78.36,52.72,6.85
141,Castro,0,BR,1590698865,72,-24.79,-50.01,52.36,2.51
142,Ventspils,56,LV,1590698865,81,57.39,21.56,48.2,10.29
143,Rio Grande,0,BR,1590698566,64,-32.03,-52.1,68.0,4.7
144,Anshun,100,CN,1590698865,98,26.25,105.93,57.09,1.03
145,Cairns,13,AU,1590698866,88,-16.92,145.77,62.6,8.05
146,Vila,11,PT,1590698866,89,42.03,-8.16,69.01,2.48
147,Deputatsky,100,RU,1590698866,97,69.3,139.9,32.13,5.84
148,Lebu,71,CL,1590698866,75,-37.62,-73.65,53.67,17.87
149,Nouakchott,0,MR,1590698866,69,18.09,-15.98,73.4,10.29
150,Praia da Vitória,20,PT,1590698866,63,38.73,-27.07,62.6,7.65
151,Pevek,20,RU,1590698866,84,69.7,170.31,35.76,21.94
152,Saskylakh,95,RU,1590698867,93,71.92,114.08,32.16,11.54
153,Alihe,92,CN,1590698867,65,50.57,123.72,55.26,2.53
154,Boden,68,SE,1590698867,55,65.83,21.69,51.8,8.05
155,Turukhansk,39,RU,1590698867,73,65.82,87.98,39.79,1.34
156,Flinders,30,AU,1590698867,93,-34.58,150.86,55.0,1.01
157,Te Anau,92,NZ,1590698867,83,-45.42,167.72,44.29,1.12
158,Tuy Hoa,98,VN,1590698867,84,13.08,109.3,76.87,3.91
159,Owando,91,CG,1590698867,92,-0.48,15.9,74.66,1.25
160,São João da Barra,75,BR,1590698868,68,-21.64,-41.05,71.6,11.41
161,Lompoc,1,US,1590698848,60,34.64,-120.46,73.4,10.29
162,Saint-Philippe,40,RE,1590698868,60,-21.36,55.77,73.4,5.82
163,Shubarkuduk,0,KZ,1590698868,84,49.14,56.49,70.86,10.78
164,Manjacaze,0,MZ,1590698868,72,-24.71,33.88,57.29,6.02
165,Kiama,45,AU,1590698868,89,-34.68,150.87,55.0,1.99
166,Amsterdam,1,NL,1590698577,58,52.37,4.89,57.99,11.41
167,Manicoré,56,BR,1590698869,85,-5.81,-61.3,81.23,3.53
168,Avarua,66,CK,1590698869,94,-21.21,-159.78,78.8,13.87
169,Hong Kong,29,HK,1590698863,88,22.29,114.16,80.01,11.01
170,Jilib,4,SO,1590698869,94,0.49,42.79,74.05,4.54
171,Yangi Marg`ilon,44,UZ,1590698869,30,40.43,71.72,81.28,7.36
172,Cornelius,75,US,1590698869,74,35.49,-80.86,82.99,5.82
173,Porto San Giorgio,23,IT,1590698870,48,43.18,13.79,62.01,4.7
174,Yanam,95,IN,1590698870,89,16.73,82.22,83.84,2.86
175,Kavieng,85,PG,1590698870,72,-2.57,150.8,82.72,2.64
176,San Patricio,5,MX,1590698870,78,19.22,-104.7,78.8,23.04
177,Hanna,37,CA,1590698870,36,51.63,-111.9,64.0,2.89
178,Mar del Plata,100,AR,1590698870,71,-38.0,-57.56,57.2,9.17
179,Katherine,91,AU,1590698870,72,-14.47,132.27,60.8,6.93
180,Bay Roberts,90,CA,1590698870,82,47.6,-53.26,57.2,11.41
181,Upernavik,11,GL,1590698871,96,72.79,-56.15,29.66,5.57
182,Maragogi,45,BR,1590698871,85,-9.01,-35.22,77.99,5.86
183,Saldanha,91,ZA,1590698871,93,-33.01,17.94,57.2,5.82
184,Noumea,0,NC,1590698871,82,-22.28,166.46,73.0,2.24
185,Saint Paul Harbor,40,US,1590698871,31,57.79,-152.41,60.8,16.11
186,Perelyub,0,RU,1590698871,83,51.87,50.37,57.58,9.4
187,Hualmay,61,PE,1590698871,73,-11.1,-77.61,70.59,7.23
188,Quatre Cocos,40,MU,1590698871,83,-20.21,57.76,75.2,11.41
189,Sijunjung,81,ID,1590698872,90,-0.69,100.95,73.04,1.16
190,Leh,100,IN,1590698872,48,34.17,77.58,48.27,3.4
191,Waitati,100,NZ,1590698872,88,-45.75,170.57,45.0,1.01
192,Sola,31,VU,1590698872,84,-13.88,167.55,80.96,20.0
193,Manacapuru,40,BR,1590698872,74,-3.3,-60.62,86.0,4.7
194,Riyadh,0,SA,1590698757,20,24.69,46.72,87.8,3.36
195,Okhotsk,100,RU,1590698872,90,59.38,143.3,37.58,8.41
196,Cidreira,0,BR,1590698873,75,-30.18,-50.21,61.03,7.36
197,Atambua,100,ID,1590698873,89,-9.11,124.89,71.47,4.74
198,Khasan,36,RU,1590698873,76,42.43,130.64,54.68,6.17
199,Gamba,100,GA,1590698873,89,-2.65,10.0,76.08,7.38
200,Kumul,10,CN,1590698873,25,42.8,93.45,61.66,19.66
201,Martapura,100,ID,1590698873,94,-3.42,114.85,72.7,1.83
202,Vila Franca do Campo,20,PT,1590698873,67,37.72,-25.43,60.8,13.87
203,Butaritari,3,KI,1590698873,79,3.07,172.79,83.05,12.93
204,Mount Gambier,3,AU,1590698874,93,-37.83,140.77,46.4,9.17
205,Tasiilaq,100,GL,1590698874,94,65.61,-37.64,35.6,14.99
206,Santa Maria,0,BR,1590698722,60,-29.68,-53.81,73.4,4.7
207,Amahai,93,ID,1590698874,85,-3.33,128.92,78.55,3.71
208,Gritsovskiy,84,RU,1590698874,66,54.14,38.16,59.0,9.22
209,Matata,100,NZ,1590698874,98,-37.88,176.75,51.01,6.22
210,Bissorã,1,GW,1590698874,52,12.22,-15.45,80.89,8.52
211,Nanortalik,98,GL,1590698875,83,60.14,-45.24,36.57,14.29
212,Pouembout,2,NC,1590698875,82,-21.13,164.9,73.18,4.47
213,Rawson,98,AR,1590698858,47,-43.3,-65.1,53.26,7.18
214,Ken Caryl,59,US,1590698875,47,39.58,-105.12,73.0,3.0
215,Medicine Hat,40,CA,1590698875,33,50.05,-110.67,68.0,9.17
216,Cayenne,100,GF,1590698875,100,4.93,-52.33,75.2,14.99
217,Laas,40,IT,1590698875,81,46.62,10.7,46.4,6.93
218,Pangkalanbuun,99,ID,1590698875,94,-2.68,111.62,73.6,2.73
219,Lake City,1,US,1590698867,74,30.19,-82.64,89.6,3.36
220,Ormara,31,PK,1590698876,82,25.21,64.64,84.74,21.56
221,Departamento de Maldonado,0,UY,1590698876,77,-34.67,-54.92,64.0,8.05
222,Baruun-Urt,78,MN,1590698876,83,46.68,113.28,52.66,13.42
223,Lata,63,PT,1590698876,66,40.16,-8.33,75.99,4.0
224,Ukiah,1,US,1590698876,23,39.15,-123.21,97.0,3.36
225,Makkah al Mukarramah,0,SA,1590698876,24,21.43,39.83,90.14,3.76
226,Leshukonskoye,89,RU,1590698876,80,64.9,45.76,52.74,7.25
227,Dongsheng,65,CN,1590698877,31,39.82,109.98,61.38,9.66
228,Mandera,47,KE,1590698877,65,3.94,41.87,82.6,12.15
229,Antsohihy,0,MG,1590698877,65,-14.88,47.99,71.13,6.98
230,Comodoro Rivadavia,0,AR,1590698701,62,-45.87,-67.5,51.8,3.36
231,Grants Pass,1,US,1590698877,29,42.44,-123.33,88.0,4.85
232,Kosh-Agach,91,RU,1590698877,74,50.0,88.67,37.8,4.76
233,George Town,20,MY,1590698587,100,5.41,100.34,78.8,5.7
234,Pimentel,24,PE,1590698878,77,-6.84,-79.93,71.62,12.75
235,Lyubinskiy,40,RU,1590698878,39,55.15,72.69,64.4,6.71
236,Bambous Virieux,40,MU,1590698878,83,-20.34,57.76,75.2,11.41
237,Umm Kaddadah,0,SD,1590698878,11,13.6,26.69,90.28,7.4
238,Port-Gentil,40,GA,1590698878,88,-0.72,8.78,80.6,11.41
239,Vardø,16,NO,1590698878,70,70.37,31.11,42.8,5.82
240,Vanavara,97,RU,1590698879,78,60.34,102.28,36.39,1.45
241,Banganapalle,77,IN,1590698879,47,15.32,78.23,92.8,15.35
242,Saiha,27,IN,1590698879,91,22.48,92.97,67.57,2.8
243,Westport,90,US,1590698879,83,41.14,-73.36,71.6,12.75
244,Talcahuano,100,CL,1590698879,66,-36.72,-73.12,55.4,6.93
245,Gualeguay,0,AR,1590698879,73,-33.14,-59.31,62.46,5.26
246,Marzuq,96,YE,1590698879,36,14.4,46.47,83.44,1.45
247,Hueyapan,75,MX,1590698879,29,18.87,-98.67,89.6,11.41
248,Mandalgovi,55,MN,1590698880,71,45.76,106.27,41.47,22.08
249,Bojnourd,0,IR,1590698880,45,37.47,57.33,64.4,1.5
250,Huntley,99,US,1590698880,68,42.17,-88.43,79.0,3.0
251,Salinas,1,US,1590698823,64,36.68,-121.66,68.0,16.11
252,Tres Picos,100,MX,1590698881,59,15.87,-93.53,88.61,4.41
253,La Palma,4,US,1590698881,54,33.85,-118.05,82.99,5.99
254,Saint Lawrence,0,MT,1590698881,82,36.06,14.2,66.99,5.82
255,Raahe,0,FI,1590698881,70,64.68,24.48,48.2,8.05
256,Lubango,0,AO,1590698881,42,-14.92,13.49,59.13,4.43
257,Lodwar,8,KE,1590698881,45,3.12,35.6,86.72,20.2
258,Pisco,75,PE,1590698881,73,-13.7,-76.22,69.8,9.17
259,Kalāleh,0,IR,1590698882,82,37.38,55.49,68.0,2.24
260,Neyshabur,0,IR,1590698882,22,36.21,58.8,75.74,6.33
261,Raudeberg,0,NO,1590698882,76,61.99,5.14,48.99,4.63
262,Santa Rosa,20,PH,1590698882,88,14.31,121.11,81.0,3.36
263,Savinka,0,RU,1590698882,72,50.08,47.1,62.15,12.55
264,Cherskiy,8,RU,1590698882,49,68.75,161.3,49.05,18.21
265,Kyabé,100,TD,1590698883,49,9.45,18.94,86.52,2.73
266,Ballinasloe,70,IE,1590698883,84,53.33,-8.22,57.52,9.24
267,Hokitika,100,NZ,1590698883,67,-42.72,170.97,49.82,2.15
268,Taywarah,3,AF,1590698883,52,33.35,64.42,52.41,5.66
269,Redmond,100,US,1590698847,43,47.67,-122.12,81.0,6.51
270,Los Llanos de Aridane,75,ES,1590698883,77,28.66,-17.92,69.8,13.87
271,Ushtobe,0,KZ,1590698884,42,45.25,77.98,56.41,13.4
272,Erechim,0,BR,1590698884,85,-27.63,-52.27,55.53,1.99
273,Springfield,75,US,1590698703,69,37.22,-93.3,73.99,8.05
274,Tiksi,100,RU,1590698884,97,71.69,128.87,28.11,8.1
275,Nome,40,US,1590698884,87,64.5,-165.41,46.99,6.93
276,Lüderitz,0,NA,1590698884,71,-26.65,15.16,55.4,12.75
277,Juegang,100,CN,1590698885,79,32.32,121.19,68.07,10.07
278,Kupang,42,ID,1590698885,80,-10.17,123.58,76.39,7.63
279,Kampene,92,CD,1590698885,72,-3.6,26.67,72.54,2.46
280,Chapais,90,CA,1590698885,35,49.78,-74.85,84.2,13.87
281,Sirte,0,LY,1590698885,66,31.21,16.59,66.02,12.73
282,Maiduguri,69,NG,1590698885,20,11.85,13.16,93.0,6.24
283,Nouadhibou,0,MR,1590698886,60,20.93,-17.03,73.4,18.34
284,Palmer,75,US,1590698590,69,42.16,-72.33,77.0,16.11
285,Santa Isabel Rio Negro,100,BR,1590698886,89,-0.41,-65.02,82.38,1.61
286,New Bern,75,US,1590698886,78,35.11,-77.04,81.0,10.29
287,Necochea,99,AR,1590698886,81,-38.55,-58.74,54.0,1.99
288,Patacamaya,50,BO,1590698886,31,-17.23,-67.92,56.43,6.24
289,Arraial do Cabo,75,BR,1590698886,77,-22.97,-42.03,69.8,12.75
290,Vuktyl,0,RU,1590698887,83,63.86,57.31,45.63,8.63
291,Caravelas,0,BR,1590698704,73,-17.71,-39.25,71.51,8.48
292,Belfast,100,GB,1590698887,67,54.58,-5.93,64.4,3.36
293,Sudak,0,UA,1590698887,82,44.85,34.97,57.31,2.04
294,Morondava,0,MG,1590698887,78,-20.28,44.28,73.29,9.31
295,Saint Anthony,1,US,1590698887,22,45.02,-93.22,80.01,17.22
296,Esperance,0,AU,1590698887,62,-33.87,121.9,55.4,17.22
297,Vostok,9,RU,1590698888,94,46.49,135.88,52.48,4.7
298,Narsaq,53,GL,1590698888,71,60.92,-46.05,46.4,10.29
299,Kharan,5,PK,1590698888,16,28.58,65.42,86.45,7.45
300,Mercedes,0,AR,1590698888,60,-34.65,-59.43,69.01,1.99
301,Omboué,95,GA,1590698888,87,-1.57,9.26,77.09,8.66
302,Pontianak,92,ID,1590698885,88,-0.03,109.33,74.46,3.42
303,Lamont,0,US,1590698889,22,35.26,-118.91,102.0,5.01
304,Starosubkhangulovo,19,RU,1590698889,92,53.1,57.44,57.13,5.59
305,Paamiut,74,GL,1590698889,87,61.99,-49.67,34.77,19.89
306,Salyan,0,AZ,1590698864,74,39.59,48.98,66.43,4.85
307,Porto Santo,20,PT,1590698889,82,33.07,-16.34,66.2,12.75
308,Port Lincoln,0,AU,1590698889,68,-34.73,135.87,54.39,13.27
309,Kiruna,80,SE,1590698890,65,67.86,20.23,41.0,6.93
310,Bondoukou,100,CI,1590698890,89,8.03,-2.8,75.87,2.59
311,Voi,100,KE,1590698890,83,-3.39,38.56,70.48,8.55
312,San Borja,94,BO,1590698890,57,-14.82,-66.85,79.09,3.85
313,Beloha,11,MG,1590698890,95,-25.17,45.05,63.82,6.38
314,Bakaly,13,RU,1590698890,84,55.18,53.8,52.63,4.18
315,Octeville,0,FR,1590698890,71,49.63,-1.64,55.4,16.11
316,Havre-St-Pierre,40,CA,1590698643,76,50.23,-63.6,57.2,12.75
317,Hong Gai,40,VN,1590698891,83,20.96,107.09,80.6,2.24
318,Saint-François,0,FR,1590698891,63,46.42,3.91,60.8,3.36
319,Chui,0,UY,1590698891,83,-33.7,-53.46,57.52,3.2
320,Monte Alegre,99,BR,1590698891,78,-2.01,-54.07,82.72,3.76
321,Goma,99,CD,1590698891,81,-1.68,29.22,64.11,2.68
322,Itaituba,72,BR,1590698891,74,-4.28,-55.98,83.55,2.95
323,Cherëmukhovo,0,RU,1590698892,79,60.35,59.99,49.57,8.46
324,San Policarpo,61,PH,1590698892,76,12.18,125.51,81.93,4.61
325,Tazmalt,40,DZ,1590698892,72,36.39,4.4,68.0,4.7
326,Santarém,40,BR,1590698892,74,-2.44,-54.71,87.8,6.93
327,Lerwick,98,GB,1590698892,93,60.15,-1.15,51.8,4.7
328,Verkhnyaya Inta,100,RU,1590698892,91,65.98,60.31,44.98,15.86
329,Deniliquin,0,AU,1590698892,94,-35.53,144.97,39.99,1.52
330,Moses Lake,1,US,1590698637,18,47.13,-119.28,82.4,8.05
331,Fort Saint James,100,CA,1590698893,31,54.43,-124.25,64.98,8.32
332,Sumenep,100,ID,1590698893,83,-7.02,113.87,78.3,10.33
333,Inhambane,0,MZ,1590698893,67,-23.86,35.38,65.35,5.21
334,Ilulissat,75,GL,1590698893,69,69.22,-51.1,33.8,6.93
335,Dera Bugti,0,PK,1590698893,10,29.03,69.15,92.16,8.1
336,Aracati,82,BR,1590698893,79,-4.56,-37.77,80.71,7.81
337,Avera,40,US,1590698894,62,33.19,-82.53,86.0,8.05
338,Bereda,0,ES,1590698894,78,43.27,-7.54,66.99,1.99
339,Asău,100,RO,1590698894,86,46.43,26.4,50.0,4.36
340,Kudahuvadhoo,100,MV,1590698894,73,2.67,72.89,83.7,12.77
341,Sivaki,100,RU,1590698894,67,52.63,126.75,51.08,11.88
342,Tadine,9,NC,1590698894,79,-21.55,167.88,74.07,7.43
343,Aklavik,20,CA,1590698895,49,68.22,-135.01,62.6,5.82
344,Dubbo,0,AU,1590698895,100,-32.25,148.62,42.8,11.41
345,Kangaatsiaq,47,GL,1590698895,92,68.31,-53.46,30.52,9.46
346,Kampong Cham,99,KH,1590698895,86,11.99,105.46,79.79,4.99
347,Nuristan,72,AF,1590698895,80,35.3,70.83,36.23,6.67
348,Evensk,0,RU,1590698895,63,61.95,159.23,42.58,8.1
349,Soyo,83,AO,1590698895,86,-6.13,12.37,77.04,9.33
350,Bacolod City,73,PH,1590698895,78,10.67,122.95,80.17,2.1
351,Lucapa,94,AO,1590698896,45,-8.42,20.74,75.72,4.12
352,Bathsheba,20,BB,1590698896,69,13.22,-59.52,82.4,17.22
353,Sokolo,29,ML,1590698896,31,14.73,-6.12,90.97,4.38
354,Touros,40,BR,1590698896,78,-5.2,-35.46,82.4,8.05
355,Lockhart,40,US,1590698896,62,28.62,-81.44,87.01,14.99
356,Klaksvík,99,FO,1590698896,100,62.23,-6.59,46.4,9.17
357,Natal,40,BR,1590698897,78,-5.79,-35.21,82.4,8.05
358,Kununurra,56,AU,1590698897,38,-15.77,128.73,64.4,7.18
359,Baijiantan,0,CN,1590698897,22,45.63,85.18,69.33,13.11
360,Darhan,100,MN,1590698897,75,49.49,105.92,41.77,8.3
361,Hamilton,40,US,1590698897,54,39.18,-84.53,84.0,12.75
362,Bonfim,55,BR,1590698897,67,3.08,-59.95,85.82,2.35
363,Alytus,74,LT,1590698898,58,54.4,24.05,53.6,4.7
364,Awjilah,0,LY,1590698898,50,29.11,21.29,67.59,13.38
365,Eureka,4,US,1590698866,80,40.8,-124.16,69.01,1.99
366,Bagotville,75,AU,1590698898,93,-28.98,153.42,60.8,6.93
367,Manadhoo,91,MV,1590698898,77,5.77,73.38,83.26,12.68
368,Saint-Leu,7,RE,1590698898,60,-21.15,55.28,73.4,5.82
369,Saint-Marc-des-Carrieres,20,CA,1590698898,42,46.68,-72.05,87.8,10.29
370,Goderich,100,CA,1590698899,90,43.75,-81.72,77.0,8.08
371,Kuvshinovo,84,RU,1590698899,81,57.03,34.17,50.25,2.17
372,Valky,24,UA,1590698899,93,49.84,35.62,57.79,7.96
373,Codrington,87,AU,1590698899,92,-38.27,141.97,46.2,10.78
374,Edd,79,ER,1590698899,72,13.93,41.69,86.61,3.27
375,Caucasia,100,CO,1590698899,73,7.99,-75.19,82.17,3.44
376,Nova Viçosa,0,BR,1590698899,72,-17.89,-39.37,71.91,11.32
377,Anadyr,90,RU,1590698900,96,64.75,177.48,33.8,24.61
378,Merauke,100,ID,1590698900,85,-8.47,140.33,77.31,12.68
379,Sur,4,OM,1590698900,57,22.57,59.53,89.15,10.63
380,Kanniyākumāri,100,IN,1590698900,82,8.08,77.57,81.28,22.32
381,Bossier City,75,US,1590698900,61,32.52,-93.73,80.01,3.36
382,Verkhnevilyuysk,2,RU,1590698900,90,63.45,120.32,33.17,8.3
383,Hirara,8,JP,1590698901,89,24.8,125.28,78.64,15.32
384,Cherepanovo,0,RU,1590698901,75,54.22,83.38,45.36,4.63
385,Bondo,100,CD,1590698901,97,3.81,23.69,71.19,1.12
386,Gondanglegi,100,ID,1590698901,87,-7.75,112.01,74.08,6.67
387,Isangel,20,VU,1590698901,94,-19.55,169.27,73.4,8.28
388,Ca Mau,100,VN,1590698902,89,9.18,105.15,80.58,3.27
389,Gizo Government Station,100,SB,1590698902,73,-8.1,156.84,83.19,3.83
390,Walvis Bay,0,NA,1590698902,71,-22.96,14.51,55.99,4.7
391,Ploskoye,100,RU,1590698902,92,52.76,38.36,57.24,13.02
392,Maumere,41,ID,1590698902,80,-8.62,122.21,78.93,2.53
393,Whyalla,0,AU,1590698902,93,-33.03,137.58,41.0,4.7
394,Aljezur,0,PT,1590698903,63,37.32,-8.8,73.0,3.74
395,Basco,88,PH,1590698903,80,20.45,121.97,83.91,7.74
396,Pozo Colorado,0,PY,1590698903,51,-23.49,-58.8,72.0,5.17
397,Autazes,89,BR,1590698903,89,-3.58,-59.13,81.88,1.48
398,Sainte-Anne-des-Monts,44,CA,1590698903,64,49.12,-66.49,66.99,14.12
399,Lufkin,20,US,1590698706,69,31.34,-94.73,82.0,4.7
400,Boende,82,CD,1590698903,89,-0.22,20.87,74.21,1.77
401,Llanes,0,ES,1590698904,68,43.42,-4.75,73.0,1.99
402,Marawi,63,PH,1590698904,91,8.0,124.29,75.0,7.0
403,Doba,55,TD,1590698904,56,8.65,16.85,85.1,5.1
404,Sechura,8,PE,1590698904,65,-5.56,-80.82,75.9,15.79
405,Marau,0,BR,1590698904,86,-28.45,-52.2,58.12,2.59
406,Nipawin,90,CA,1590698904,81,53.37,-104.0,46.4,10.29
407,Turbat,8,PK,1590698904,45,26.0,63.04,80.74,0.76
408,Kiryat Gat,3,IL,1590698904,77,31.61,34.76,70.0,7.92
409,Luganville,40,VU,1590698905,83,-15.53,167.17,78.8,1.12
410,Nguru,74,NG,1590698905,12,12.88,10.45,90.72,9.64
411,Rive-de-Gier,0,FR,1590698609,45,45.53,4.62,71.6,3.36
412,Luwuk,85,ID,1590698905,76,-0.95,122.79,78.8,4.43
413,Bubaque,0,GW,1590698905,82,11.28,-15.83,79.18,15.21
414,San Fernando del Valle de Catamarca,0,AR,1590698905,45,-28.47,-65.79,75.0,1.01
415,Creel,57,MX,1590698905,14,27.75,-107.63,84.43,3.0
416,La Ronge,75,CA,1590698905,70,55.1,-105.28,48.2,6.93
417,Deep River,1,CA,1590698906,51,46.1,-77.5,82.4,10.29
418,Benghazi,0,LY,1590698906,67,32.12,20.07,66.52,11.88
419,Padang,75,ID,1590698906,82,-0.95,100.35,78.71,3.38
420,Chesma,97,RU,1590698906,83,53.81,60.65,58.35,11.97
421,Jacareacanga,88,BR,1590698906,92,-6.22,-57.75,80.24,1.92
422,Dudinka,75,RU,1590698906,77,69.41,86.18,35.6,6.71
423,Lubāna,27,LV,1590698906,88,56.9,26.72,46.27,4.74
424,Zhangye,93,CN,1590698907,45,38.93,100.45,60.73,5.23
425,Ankazobe,40,MG,1590698907,93,-18.32,47.12,59.0,4.7
426,Kiunga,99,PG,1590698907,98,-6.12,141.29,73.69,2.24
427,Mpika,0,ZM,1590698907,76,-11.83,31.45,63.46,8.7
428,Babu,23,CN,1590698907,86,24.42,111.52,72.95,0.96
429,Santo Domingo,75,DO,1590698691,88,18.5,-69.99,82.99,7.94
430,Yuanping,0,CN,1590698907,31,38.72,112.76,61.36,1.39
431,Sioux Lookout,90,CA,1590698907,45,50.1,-91.92,62.6,17.22
432,Tombouctou,31,ML,1590698908,20,20.0,-3.0,93.63,9.42
433,Kahului,20,US,1590698908,54,20.89,-156.47,84.2,23.04
434,Mitú,64,CO,1590698908,67,1.2,-70.17,83.14,3.13
435,Amapá,73,BR,1590698908,95,1.0,-52.0,77.5,3.29
436,Boa Vista,75,BR,1590698630,62,2.82,-60.67,86.0,4.7
437,Guerrero Negro,5,MX,1590698908,44,27.98,-114.06,77.94,15.97
438,Nakambala,0,ZM,1590698908,57,-15.83,27.78,59.81,5.57
439,Cockburn Town,40,TC,1590698909,66,21.46,-71.14,86.0,11.41
440,Karratha,25,AU,1590698909,49,-20.74,116.85,66.54,7.27
441,Krasnosel'kup,82,RU,1590698909,64,65.7,82.47,46.72,11.81
442,Bukachacha,100,RU,1590698909,72,52.98,116.92,46.76,4.85
443,Tekeli,0,KZ,1590698909,44,44.83,78.82,53.24,4.29
444,San Quintín,6,MX,1590698910,69,30.48,-115.95,70.16,11.14
445,Turkmenabat,0,TM,1590698910,23,39.07,63.58,84.2,6.93
446,Praia,20,CV,1590698910,69,14.92,-23.51,78.8,9.17
447,Makurdi,100,NG,1590698910,85,7.74,8.51,79.86,8.28
448,Zatoka,75,UA,1590698910,100,46.07,30.47,57.2,13.42
449,Nexø,48,DK,1590698910,81,55.06,15.13,50.0,1.12
450,Chulym,68,RU,1590698910,64,55.1,80.96,54.16,5.21
451,Nha Trang,20,VN,1590698910,79,12.25,109.18,84.2,3.44
452,Maracás,57,BR,1590698911,89,-13.44,-40.43,63.97,8.61
453,Kyshtovka,98,RU,1590698911,76,56.55,76.63,56.14,11.23
454,Blythe,1,US,1590698911,10,33.61,-114.6,108.0,14.99
455,Sinop Province,54,TR,1590698911,82,41.77,34.87,49.24,2.08
456,Itoman,75,JP,1590698911,69,26.12,127.67,75.2,4.7
457,Kärdla,22,EE,1590698912,81,59.0,22.75,48.99,15.01
458,Zemetchino,57,RU,1590698912,85,53.5,42.62,55.18,9.6
459,Ojinaga,1,MX,1590698912,9,29.57,-104.42,102.2,8.05
460,Maniitsoq,69,GL,1590698912,87,65.42,-52.9,34.36,7.78
461,Norman Wells,20,CA,1590698912,32,65.28,-126.83,59.0,9.17
462,Taltal,26,CL,1590698885,68,-25.4,-70.48,62.2,1.63
463,Nālūt,0,LY,1590698912,22,30.33,10.85,71.87,10.78
464,Faro,0,PT,1590698774,73,37.02,-7.93,73.0,4.7
465,Hare Bay,75,CA,1590698913,77,48.85,-54.01,66.2,10.29
466,Faanui,30,PF,1590698913,76,-16.48,-151.75,82.06,14.74
467,Morón,0,AR,1590698913,69,-34.65,-58.62,66.99,1.01
468,Oranjestad,20,AW,1590698781,70,12.52,-70.03,86.0,23.04
469,Abonnema,100,NG,1590698913,89,4.71,6.79,79.18,5.55
470,Ancud,16,CL,1590698913,75,-41.87,-73.82,48.99,4.7
471,Dumas,1,US,1590698914,23,35.87,-101.97,82.99,12.75
472,Qeshm,0,IR,1590698914,62,26.96,56.27,87.8,9.17
473,Thunder Bay,75,CA,1590698914,35,48.4,-89.32,73.4,5.82
474,Inuvik,20,CA,1590698914,24,68.35,-133.72,66.2,8.05
475,Kavaratti,97,IN,1590698914,75,10.57,72.64,85.73,7.74
476,Lavrentiya,98,RU,1590698914,93,65.58,-171.0,33.28,5.93
477,Yurimaguas,20,PE,1590698914,59,-5.9,-76.08,89.6,4.7
478,Conde,20,BR,1590698915,88,-7.26,-34.91,80.6,9.17
479,Havelock,100,US,1590698915,86,34.88,-76.9,80.01,8.99
480,Ambovombe,31,MG,1590698915,89,-25.17,46.08,68.16,9.1
481,Itarema,45,BR,1590698915,87,-2.92,-39.92,79.34,9.75
482,Oltu,100,TR,1590698915,61,40.55,42.0,59.68,4.83
483,Samarai,4,PG,1590698915,83,-10.62,150.67,80.83,8.57
484,Verkh-Usugli,100,RU,1590698916,94,52.7,115.17,46.71,3.96
485,Abu Dhabi,0,AE,1590698700,49,24.47,54.37,91.4,4.7
486,Belawan,75,ID,1590698916,100,3.78,98.68,75.2,11.41
487,Namatanai,99,PG,1590698916,77,-3.67,152.43,80.65,2.1
488,Sibolga,100,ID,1590698916,75,1.74,98.78,79.07,2.13
489,Svidník,100,SK,1590698916,99,49.31,21.57,51.01,10.31
490,Hobyo,28,SO,1590698916,76,5.35,48.53,83.03,26.04
491,Kandrian,7,PG,1590698917,85,-6.22,149.55,78.66,3.24
492,Nador,90,MA,1590698793,88,35.17,-2.93,68.0,5.82
493,Magadan,100,RU,1590698917,93,59.57,150.8,36.36,4.92
494,Nicoya,75,CR,1590698702,88,10.15,-85.45,78.8,8.05
495,Iqaluit,90,CA,1590698917,73,63.75,-68.51,26.6,10.29
496,San Cristobal,75,VE,1590698917,55,7.77,-72.22,86.0,4.7
497,Ust-Nera,100,RU,1590698917,77,64.57,143.2,47.3,4.99
498,Mayumba,100,GA,1590698918,90,-3.43,10.66,75.9,6.89
499,Annapolis,75,US,1590698823,94,38.98,-76.49,77.0,13.87
500,La Seyne-sur-Mer,0,FR,1590698918,78,43.1,5.88,68.0,10.09
501,Petropavlovsk-Kamchatskiy,51,RU,1590698718,86,53.05,158.65,39.2,2.24
502,Hervey Bay,68,AU,1590698918,84,-25.3,152.85,61.0,4.0
503,Tomatlán,0,MX,1590698918,47,19.93,-105.25,87.13,13.29
504,Robertsport,100,LR,1590698918,86,6.75,-11.37,80.02,9.17
505,La Santisima Trinidad,85,BO,1590698918,54,-14.83,-64.9,84.2,2.39
506,Bac Lieu,100,VN,1590698919,76,9.29,105.72,84.27,8.41
507,Montepuez,68,MZ,1590698919,89,-13.13,39.0,68.86,4.88
508,Englehart,40,CA,1590698919,54,47.82,-79.87,80.6,24.16
509,San Matías,0,BO,1590698919,51,-16.37,-58.4,76.41,3.2
510,Nelspruit,0,ZA,1590698919,62,-25.47,30.97,53.6,4.7
511,Tiarei,20,PF,1590698919,74,-17.53,-149.33,84.2,6.93
512,Pinawa,100,CA,1590698919,75,50.15,-95.88,48.36,13.18
513,Mitsamiouli,49,KM,1590698919,69,-11.38,43.28,78.91,4.76
514,Jyvaskyla,0,FI,1590698920,52,62.24,25.72,46.0,5.82
515,Olinda,40,BR,1590698679,78,-8.01,-34.86,82.4,9.17
516,Río Tercero,0,AR,1590698920,42,-32.17,-64.11,67.51,4.72
517,Kieta,96,PG,1590698920,77,-6.22,155.63,80.94,3.04
518,Jinxiang,61,CN,1590698920,93,22.86,115.7,76.15,9.24
519,Rexburg,1,US,1590698920,31,43.83,-111.79,79.0,10.29
520,Luanda,75,AO,1590698920,94,-8.84,13.23,75.2,8.05
521,Kaifeng,100,CN,1590698920,39,34.79,114.35,78.8,4.47
522,Alice Springs,0,AU,1590698727,60,-23.7,133.88,41.0,3.36
523,Maningrida,89,AU,1590698921,92,-12.07,134.27,66.61,8.93
524,Katsuura,20,JP,1590698921,82,35.13,140.3,63.0,6.93
525,Meadow Lake,40,US,1590698921,17,34.8,-106.54,91.0,4.7
526,Zastron,0,ZA,1590698921,71,-30.3,27.08,37.33,4.03
527,Port Macquarie,5,AU,1590698921,98,-31.43,152.92,53.01,8.39
528,Bosaso,77,SO,1590698921,58,11.28,49.18,89.46,6.17
529,Chifeng,6,CN,1590698922,66,42.27,118.96,57.92,4.99
530,Águas Vermelhas,87,BR,1590698922,80,-15.75,-41.46,64.29,4.81
531,Roald,67,NO,1590698922,81,62.58,6.13,48.99,5.82
532,Mayo,75,US,1590698922,94,38.89,-76.51,75.0,13.87
533,Shaunavon,0,CA,1590698919,33,49.65,-108.42,63.36,8.46
534,Province of Groningen,0,NL,1590698914,81,53.25,6.75,51.01,4.7
535,Kannur,100,IN,1590698922,82,11.87,75.36,81.88,4.38
536,Priiskovyy,100,RU,1590698922,80,51.93,116.63,53.44,1.52
537,Wajid,91,SO,1590698923,80,3.81,43.25,77.34,13.0
538,Marabu,75,MY,1590698713,94,4.41,114.01,77.0,5.82
539,Kushima,0,JP,1590698923,72,31.46,131.23,63.1,5.93
540,Montego Bay,20,JM,1590698728,74,18.47,-77.92,87.8,20.8
541,Santa Marinella,1,IT,1590698923,68,42.03,11.85,69.01,8.05
542,Pangnirtung,90,CA,1590698923,74,66.15,-65.71,28.4,14.99
543,Palm Beach Gardens,40,US,1590698730,66,26.82,-80.14,91.99,16.11
544,Byron Bay,75,AU,1590698924,93,-28.65,153.62,60.8,6.93
545,Buala,42,SB,1590698924,75,-8.14,159.59,82.94,5.5
546,Berlevåg,75,NO,1590698924,80,70.86,29.09,39.2,24.16
547,Alta Floresta,58,BR,1590698924,90,-9.88,-56.09,77.25,2.17
548,Buraidah,0,SA,1590698836,24,26.33,43.98,89.6,5.82
549,Beringovskiy,100,RU,1590698924,97,63.05,179.32,34.56,12.93
550,Obuasi,100,GH,1590698924,97,6.21,-1.66,74.77,2.73
551,Ürümqi,0,CN,1590698924,20,43.8,87.6,66.2,11.18
552,Copperas Cove,1,US,1590698925,58,31.12,-97.9,82.4,9.17
553,Itupiranga,75,BR,1590698925,70,-5.13,-49.33,87.8,9.17
554,Mariehamn,16,AX,1590698925,81,60.1,19.93,42.8,2.24
555,Qaqortoq,26,GL,1590698925,80,60.72,-46.03,46.4,10.29
556,Staryy Nadym,100,RU,1590698925,78,65.61,72.68,50.54,24.49
557,Turka,87,UA,1590698842,81,49.15,23.03,53.01,6.17
558,Chokwé,0,MZ,1590698926,56,-24.53,32.98,61.09,4.03
559,Lokoja,73,NG,1590698926,84,7.8,6.74,79.79,4.36
560,Saint-Pierre,2,RE,1590698926,60,-21.34,55.48,71.6,5.82
561,Laguna,1,US,1590698926,28,38.42,-121.42,99.0,3.36
562,Bucak,75,TR,1590698926,93,37.46,30.59,62.6,4.92
563,Mahébourg,40,MU,1590698926,83,-20.41,57.7,75.2,11.41
564,Hohhot,10,CN,1590698926,57,40.81,111.65,51.8,4.47
565,Dunedin,100,NZ,1590698927,90,-45.87,170.5,45.0,1.01
566,Bitung,20,ID,1590698927,94,1.45,125.18,77.0,2.24
567,Yārāda,95,IN,1590698927,88,17.65,83.27,84.56,9.93
568,Grand-Lahou,79,CI,1590698927,89,5.14,-5.02,78.93,6.96
569,Phan Thiet,100,VN,1590698927,86,10.93,108.1,79.59,1.48
570,Ekhabi,100,RU,1590698927,84,53.51,142.97,37.89,7.52
571,Zhigansk,100,RU,1590698927,79,66.77,123.37,34.66,21.43
572,Haapiti,20,PF,1590698928,74,-17.57,-149.87,84.2,6.93
573,Katangli,82,RU,1590698928,81,51.71,143.23,38.8,2.91
574,San Isidro,90,PE,1590698928,68,-12.12,-77.05,71.6,3.36
575,Waddān,1,LY,1590698928,46,29.16,16.14,65.75,21.3
576,Maceió,75,BR,1590698630,78,-9.67,-35.74,78.8,6.93
577,Gijang,0,KR,1590698928,72,35.24,129.21,59.0,6.93
578,Naze,0,JP,1590698928,82,28.37,129.48,68.0,4.7
579,Dordrecht,10,NL,1590698928,69,51.81,4.67,59.0,5.99
580,Ostrovnoy,90,RU,1590698929,85,68.05,39.51,41.56,22.41
581,Hofn,100,IS,1590698929,95,64.25,-15.21,48.11,6.42
582,Chenghai,75,CN,1590698929,100,23.46,116.77,75.2,6.71
