,City Name,Cloudiness,Country,Date,Humidity,Latitude,Longitude,Max Temp.,Wind Speed
0,Half Moon Bay,5,US,1590699507,60,37.46,-122.43,77.0,9.17
1,Sabang,100,ID,1590699507,75,5.89,95.32,83.01,3.6
2,La Macarena,31,CO,1590699508,61,2.18,-73.78,84.69,3.02
3,Toora-Khem,100,RU,1590699508,84,52.47,96.11,35.24,2.33
4,Kapaa,40,US,1590699508,69,22.08,-159.32,80.6,11.41
5,Castro,0,BR,1590699286,72,-24.79,-50.01,52.36,2.51
6,Caniço,40,PT,1590699508,77,32.63,-16.85,68.0,3.36
7,Vilyuysk,69,RU,1590699508,88,63.76,121.62,33.53,9.98
8,Busselton,0,AU,1590699508,77,-33.65,115.33,60.01,18.61
9,Provideniya,90,RU,1590699509,94,64.38,-173.3,37.4,20.13
10,San Quintín,6,MX,1590698910,69,30.48,-115.95,70.16,11.14
11,Albany,95,US,1590699243,68,42.6,-73.97,78.01,10.36
12,Clyde River,75,CA,1590699509,92,70.47,-68.59,28.4,14.99
13,Broken Hill,0,AU,1590699509,75,-31.95,141.43,42.8,4.7
14,Cape Town,90,ZA,1590699351,93,-33.93,18.42,64.0,13.87
15,Faya,0,SA,1590699509,68,18.39,42.45,69.8,4.25
16,Rockhampton,20,AU,1590699510,87,-23.38,150.5,53.6,2.68
17,Belaya Gora,100,RU,1590699510,41,68.53,146.42,54.46,24.02
18,Constitución,100,CL,1590699510,85,-35.33,-72.42,56.3,0.58
19,Punta Arenas,85,CL,1590699462,74,-53.15,-70.92,41.0,13.87
20,Pangnirtung,90,CA,1590698923,74,66.15,-65.71,28.4,14.99
21,Bengkulu,100,ID,1590699510,86,-3.8,102.27,76.5,3.4
22,San Cristobal,75,VE,1590698917,55,7.77,-72.22,86.0,4.7
23,Acajutla,40,SV,1590699267,58,13.59,-89.83,86.0,1.9
24,Thompson,90,CA,1590699511,80,55.74,-97.86,39.2,8.05
25,Mossamedes,6,AO,1590699511,57,-15.2,12.15,74.48,9.15
26,Tuktoyaktuk,20,CA,1590699511,62,69.45,-133.04,51.8,10.29
27,Port Elizabeth,100,ZA,1590699265,60,-33.92,25.57,63.99,12.12
28,Kang,0,BW,1590699511,35,-23.68,22.79,51.53,3.0
29,Vaini,40,TO,1590699512,88,-21.2,-175.2,75.2,4.7
30,Port Alfred,84,ZA,1590699512,76,-33.59,26.89,64.99,4.0
31,Tres Arroyos,67,AR,1590699512,70,-38.37,-60.28,52.95,10.27
32,Mataura,58,NZ,1590699512,89,-46.19,168.86,42.46,1.68
33,San Patricio,5,MX,1590699512,78,19.22,-104.7,78.8,23.04
34,Labuan,75,MY,1590699512,94,5.28,115.24,80.6,7.67
35,Tasiilaq,100,GL,1590699512,94,65.61,-37.64,35.6,14.99
36,Gdov,0,RU,1590699513,79,58.74,27.81,50.07,7.07
37,Yangi Marg`ilon,90,UZ,1590699513,53,40.43,71.72,71.6,4.7
38,Paidha,100,UG,1590699513,90,2.42,30.99,63.09,4.5
39,Rikitea,39,PF,1590699513,84,-23.12,-134.97,76.82,7.58
40,Hobart,75,AU,1590699295,71,-42.88,147.33,55.99,8.05
41,Chui,0,UY,1590699513,83,-33.7,-53.46,57.52,3.2
42,Sur,4,OM,1590699514,57,22.57,59.53,89.15,10.63
43,Khatanga,100,RU,1590699514,95,71.97,102.5,34.65,13.82
44,Kropotkin,100,RU,1590699514,73,45.44,40.58,67.17,6.35
45,Margate,0,GB,1590699514,74,51.38,1.39,57.0,1.99
46,Vardø,16,NO,1590699514,70,70.37,31.11,42.8,5.82
47,Nicoya,75,CR,1590698702,88,10.15,-85.45,78.8,8.05
48,Butaritari,3,KI,1590699514,79,3.07,172.79,83.05,12.93
49,Alice Springs,0,AU,1590698727,60,-23.7,133.88,41.0,3.36
50,Tilichiki,100,RU,1590699514,93,60.47,166.1,35.08,11.56
51,Shenzhen,16,CN,1590699459,99,22.55,114.07,82.0,7.85
52,Pevek,20,RU,1590699515,84,69.7,170.31,35.76,21.94
53,Okakarara,0,NA,1590699515,38,-20.58,17.43,55.45,4.97
54,Avarua,66,CK,1590699515,94,-21.21,-159.78,78.8,14.99
55,Dingle,76,PH,1590699515,86,11.0,122.67,78.22,4.34
56,Chokurdakh,91,RU,1590699515,40,70.63,147.92,53.47,18.59
57,Isangel,20,VU,1590699515,94,-19.55,169.27,73.4,8.28
58,Saint Paul Harbor,40,US,1590699516,31,57.79,-152.41,60.8,16.11
59,Kruisfontein,100,ZA,1590699516,60,-34.0,24.73,60.85,10.27
60,Grindavik,90,IS,1590699516,100,63.84,-22.43,48.2,21.92
61,Natal,20,BR,1590699222,78,-5.79,-35.21,82.4,12.75
62,Malartic,75,CA,1590699516,42,48.13,-78.13,84.2,16.11
63,Jamestown,90,US,1590699396,88,42.1,-79.24,73.0,12.75
64,Qaanaaq,78,GL,1590699516,92,77.48,-69.36,32.32,1.45
65,Linxia Chengguanzhen,0,CN,1590699516,52,35.6,103.21,48.33,3.98
66,Bac Lieu,100,VN,1590698919,76,9.29,105.72,84.27,8.41
67,Henties Bay,0,NA,1590699517,91,-22.12,14.28,55.99,6.53
68,Vila Velha,20,BR,1590699517,64,-20.33,-40.29,73.4,11.41
69,Nantucket,40,US,1590699517,82,41.28,-70.1,69.01,11.41
70,Caronport,75,CA,1590699517,34,50.45,-105.82,64.4,24.16
71,Portland,40,US,1590699453,32,45.52,-122.68,89.01,10.29
72,Bereda,0,ES,1590699517,79,43.27,-7.54,66.0,1.01
73,Saldanha,91,ZA,1590699518,93,-33.01,17.94,57.2,5.82
74,Saskylakh,95,RU,1590699518,93,71.92,114.08,32.16,11.54
75,Xuzhou,100,CN,1590699518,53,34.18,117.16,80.01,5.99
76,Nísia Floresta,20,BR,1590699481,78,-6.09,-35.21,82.4,12.75
77,Bluff,61,NZ,1590699518,85,-46.6,168.33,49.14,7.49
78,Ushuaia,100,AR,1590699298,56,-54.8,-68.3,41.0,11.41
79,Calama,0,CL,1590699518,19,-22.47,-68.93,69.8,19.46
80,College,90,US,1590699518,42,64.86,-147.8,64.0,8.05
81,Waitati,100,NZ,1590699519,88,-45.75,170.57,45.0,1.01
82,Nombre de Dios,40,MX,1590699519,12,23.85,-104.23,86.0,3.36
83,Manzhouli,99,CN,1590699519,83,49.6,117.43,54.39,9.69
84,Saint-Augustin,72,CA,1590699519,75,51.23,-58.65,58.37,11.25
85,Pisco,75,PE,1590699519,73,-13.7,-76.22,69.8,9.17
86,Hīt,0,IQ,1590699519,19,33.64,42.83,89.55,17.69
87,Bredasdorp,100,ZA,1590699519,68,-34.53,20.04,64.4,21.92
88,Nara,0,JP,1590699519,71,34.69,135.8,62.01,4.7
89,Wanning,83,CN,1590699520,88,18.8,110.4,79.2,5.53
90,Osakarovka,0,KZ,1590699520,43,50.56,72.57,55.65,6.24
91,Mahébourg,40,MU,1590698926,83,-20.41,57.7,75.2,11.41
92,Luanda,75,AO,1590698920,94,-8.84,13.23,75.2,8.05
93,Hilo,20,US,1590699520,58,19.73,-155.09,82.4,10.29
94,Sanmenxia,98,CN,1590699520,46,34.77,111.18,70.03,4.81
95,Carnarvon,0,AU,1590699520,65,-24.87,113.63,63.45,9.91
96,Leningradskiy,0,RU,1590699520,84,69.38,178.42,36.18,4.81
97,Puerto Ayora,75,EC,1590699521,65,-0.74,-90.35,80.6,4.7
98,Eaglesfield,91,GB,1590699521,74,54.64,-3.4,63.0,1.92
99,Saint George,1,US,1590699431,11,37.1,-113.58,102.0,3.36
100,Paraty,0,BR,1590699521,45,-23.22,-44.71,68.0,3.36
101,San Lorenzo,0,PY,1590699521,32,-25.33,-57.53,80.6,9.17
102,Muros,6,ES,1590699521,78,42.78,-9.06,77.0,5.19
103,Kachīry,32,KZ,1590699521,36,53.07,76.1,58.68,6.11
104,Mareeba,5,AU,1590699522,91,-17.0,145.43,59.0,1.01
105,Madison,75,US,1590699275,61,34.73,-86.57,82.99,9.17
106,Weatherford,35,US,1590699337,63,32.76,-97.8,84.0,4.0
107,Amberley,40,US,1590699522,54,39.2,-84.43,84.0,12.75
108,Anadyr,75,RU,1590699522,100,64.75,177.48,33.8,24.61
109,Severo-Kuril'sk,100,RU,1590699522,93,50.68,156.12,37.96,18.5
110,Atuona,67,PF,1590699522,75,-9.8,-139.03,80.69,14.79
111,Independence,90,US,1590699522,93,39.09,-94.42,64.99,6.93
112,Sitka,75,US,1590699523,48,57.05,-135.33,60.8,13.87
113,Coquimbo,69,CL,1590699523,63,-29.95,-71.34,64.4,8.05
114,Tautira,20,PF,1590699523,74,-17.73,-149.15,84.2,6.93
115,Burgeo,29,CA,1590699523,86,47.62,-57.62,55.06,9.28
116,Bambous Virieux,40,MU,1590699523,83,-20.34,57.76,75.2,11.41
117,George Town,20,MY,1590699430,100,5.41,100.34,78.8,5.7
118,Torrington,100,US,1590699523,95,41.8,-73.12,72.0,1.01
119,Businga,62,CD,1590699524,90,3.33,20.88,74.03,1.77
120,Bira,0,RU,1590699524,62,49.0,132.47,59.86,4.32
121,Labuhan,100,ID,1590699524,85,-6.88,112.21,78.78,10.2
122,Cooma,0,AU,1590699524,100,-36.23,149.13,24.8,1.12
123,Constantine,40,DZ,1590699467,52,36.37,6.61,66.2,2.24
124,Kamina,0,CD,1590699524,61,-8.74,24.99,67.53,1.99
125,Hermanus,100,ZA,1590699525,96,-34.42,19.23,57.0,11.01
126,Hithadhoo,100,MV,1590699525,85,-0.6,73.08,79.66,20.27
127,Saint-Philippe,40,RE,1590699525,60,-21.36,55.77,73.4,5.82
128,Ayagoz,2,KZ,1590699525,68,47.97,80.44,45.46,11.54
129,Katsuura,20,JP,1590699525,77,35.13,140.3,64.0,5.82
130,Watsa,75,CD,1590699525,99,3.04,29.54,66.06,2.91
131,Yeppoon,61,AU,1590699526,87,-23.13,150.73,53.6,4.74
132,High Level,75,CA,1590699526,48,58.52,-117.14,60.8,9.17
133,Caravelas,0,BR,1590699526,73,-17.71,-39.25,71.51,8.48
134,Ahipara,100,NZ,1590699526,90,-35.17,173.17,60.67,3.0
135,Dikson,99,RU,1590699526,99,73.51,80.55,32.54,9.28
136,Iskateley,41,RU,1590699526,73,67.68,53.15,44.06,2.95
137,Cabo San Lucas,5,MX,1590699526,42,22.89,-109.91,86.0,10.29
138,New Norfolk,99,AU,1590699526,92,-42.78,147.06,51.01,4.16
139,Solnechnogorsk,74,RU,1590699527,51,56.18,36.98,62.6,4.47
140,Pindi Bhattian,19,PK,1590699527,30,31.9,73.27,88.07,7.65
141,Promyshlennaya,42,RU,1590699527,53,54.92,85.64,50.0,4.47
142,Geraldton,40,AU,1590699527,93,-28.77,114.6,59.0,9.17
143,Mananjary,28,MG,1590699527,90,-21.22,48.33,71.58,6.31
144,Road Town,20,VG,1590699244,78,18.42,-64.62,84.99,3.36
145,Shingū,0,JP,1590699528,57,33.73,135.98,62.11,4.32
146,Balkanabat,0,TM,1590699528,26,39.51,54.37,84.47,7.25
147,Bahía Blanca,95,AR,1590699528,69,-38.72,-62.27,55.11,11.7
148,Norman Wells,20,CA,1590699528,32,65.28,-126.83,59.0,9.17
149,Alofi,40,NU,1590699528,83,-19.06,-169.92,78.8,6.93
150,Birao,90,CF,1590699528,24,10.28,22.79,88.09,3.27
151,Lüderitz,0,NA,1590699528,71,-26.65,15.16,55.4,12.75
152,Torbay,90,CA,1590699529,93,47.67,-52.73,59.0,31.09
153,Barrow,20,US,1590699529,73,71.29,-156.79,32.0,5.82
154,East London,100,ZA,1590699529,38,-33.02,27.91,69.57,7.4
155,Igarka,55,RU,1590699529,75,67.47,86.58,38.68,4.54
156,Lipin Bor,65,RU,1590699529,84,60.26,37.98,51.91,8.93
157,Gigmoto,26,PH,1590699529,82,13.78,124.39,80.37,6.04
158,Pampas,73,PE,1590699529,34,-12.4,-74.9,60.24,8.21
159,Beni,98,CD,1590699529,86,0.5,29.47,66.24,0.78
160,Senno,97,RU,1590699529,96,59.53,33.92,49.3,1.97
161,Nikolskoye,95,RU,1590699530,71,59.7,30.79,52.0,5.23
162,Tiksi,100,RU,1590699530,97,71.69,128.87,28.11,8.1
163,Sept-Îles,20,CA,1590699530,50,50.2,-66.38,78.8,9.17
164,Zhigansk,100,RU,1590699530,79,66.77,123.37,34.66,21.43
165,Lebu,71,CL,1590699531,75,-37.62,-73.65,53.67,17.87
166,Wahiawā,75,US,1590699531,61,21.5,-158.02,82.4,9.17
167,Ponta Delgada,20,PT,1590699531,67,37.73,-25.67,60.8,13.87
168,Khromtau,0,KZ,1590699531,68,50.25,58.43,68.97,8.37
169,Mar del Plata,100,AR,1590699531,71,-38.0,-57.56,57.2,9.17
170,Punta Gorda,40,US,1590699531,55,26.93,-82.05,95.0,16.11
171,Mon,100,IN,1590699532,91,26.75,95.1,66.87,2.39
172,Upernavik,11,GL,1590699532,96,72.79,-56.15,29.66,5.57
173,Kargasok,58,RU,1590699532,56,59.06,80.86,49.6,10.47
174,Springdale,40,US,1590699504,73,36.19,-94.13,73.4,10.29
175,Laguna,1,US,1590699532,28,38.42,-121.42,99.0,3.36
176,Ormara,31,PK,1590699532,82,25.21,64.64,84.74,21.56
177,Athabasca,0,CA,1590699532,34,54.72,-113.29,64.94,2.15
178,Shostka,97,UA,1590699366,94,51.86,33.47,57.85,16.6
179,Hare Bay,75,CA,1590699533,77,48.85,-54.01,66.2,10.29
180,Novobiryusinskiy,100,RU,1590699533,79,56.96,97.71,40.35,3.18
181,Coria,57,ES,1590699533,49,39.99,-6.54,77.0,4.79
182,Ozernovskiy,100,RU,1590699533,84,51.5,156.52,39.54,8.39
183,Hualmay,61,PE,1590699533,73,-11.1,-77.61,70.59,7.23
184,Linhares,0,BR,1590699533,79,-19.39,-40.07,65.68,3.85
185,Codrington,87,AU,1590699534,92,-38.27,141.97,46.2,10.78
186,Ponta do Sol,49,PT,1590699534,73,32.67,-17.1,66.0,1.99
187,Ribeira Grande,20,PT,1590699534,55,38.52,-28.7,62.6,13.87
188,Troitsko-Pechorsk,0,RU,1590699534,83,62.71,56.2,47.88,7.67
189,Arraial do Cabo,75,BR,1590699415,77,-22.97,-42.03,69.8,12.75
190,Cabedelo,20,BR,1590699534,88,-6.98,-34.83,80.6,9.17
191,Lorengau,76,PG,1590699534,77,-2.02,147.27,81.03,3.49
192,Kaitangata,48,NZ,1590699534,90,-46.28,169.85,45.0,1.99
193,Gazojak,0,TM,1590699535,14,41.19,61.4,88.09,13.85
194,Wajir,87,KE,1590699535,77,1.75,40.06,79.03,16.35
195,Yellowknife,20,CA,1590699535,36,62.46,-114.35,48.2,5.82
196,Sungai Penuh,77,ID,1590699535,94,-2.08,101.38,65.5,2.37
197,Umluj,0,SA,1590699535,61,25.02,37.27,81.37,12.21
198,Vargem Alta,9,BR,1590699535,95,-20.67,-41.01,56.28,0.72
199,Naze,0,JP,1590699535,82,28.37,129.48,68.0,4.7
200,Husavik,15,IS,1590699535,51,66.04,-17.34,59.0,16.11
201,Sierra Vista,20,US,1590699536,8,31.55,-110.3,95.0,5.82
202,Sabha,100,LY,1590699536,23,27.04,14.43,78.28,18.72
203,Nadym,100,RU,1590699536,81,65.53,72.52,50.23,25.68
204,Cherskiy,8,RU,1590699536,49,68.75,161.3,49.05,18.21
205,Båtsfjord,75,NO,1590699536,80,70.63,29.72,39.2,24.16
206,Lima,90,PE,1590699460,68,-12.04,-77.03,71.6,3.36
207,Mae Tha,75,TH,1590699537,83,18.46,99.14,78.01,1.12
208,Hobyo,28,SO,1590699537,76,5.35,48.53,83.03,26.04
209,Korla,74,CN,1590699537,87,41.76,86.15,66.0,1.99
210,Kavieng,85,PG,1590699537,72,-2.57,150.8,82.72,2.64
211,Ciudad Bolivar,100,VE,1590699537,39,8.12,-63.55,92.53,13.67
212,Hasaki,20,JP,1590699537,87,35.73,140.83,59.0,5.82
213,Port Macquarie,5,AU,1590699538,98,-31.43,152.92,53.01,8.39
214,Saint Charles,75,US,1590699538,54,38.78,-90.48,84.0,17.22
215,Porto-Novo,40,BJ,1590699538,94,6.5,2.6,75.2,3.36
216,Harper,100,LR,1590699538,86,4.38,-7.72,80.04,6.49
217,Cam Ranh,20,VN,1590699538,79,11.92,109.16,84.2,1.12
218,Minna,92,NG,1590699538,88,9.61,6.56,80.6,6.93
219,Linfen,59,CN,1590699438,34,36.09,111.52,71.29,2.37
220,Coari,100,BR,1590699538,92,-4.08,-63.14,81.03,0.69
221,Kirsanov,24,RU,1590699539,90,52.65,42.72,56.82,8.88
222,Egvekinot,100,RU,1590699539,100,66.32,-179.17,30.67,5.61
223,Sistranda,75,NO,1590699539,70,63.73,8.83,48.2,11.41
224,Mumbwa,0,ZM,1590699539,46,-14.98,27.06,57.96,3.47
225,Nome,40,US,1590699539,87,64.5,-165.41,48.0,6.93
226,Leh,100,IN,1590699539,48,34.17,77.58,48.27,3.4
227,Hong Kong,29,HK,1590699294,88,22.29,114.16,80.01,11.01
228,São João da Barra,75,BR,1590699540,68,-21.64,-41.05,71.6,11.41
229,Lompoc,1,US,1590699269,60,34.64,-120.46,73.4,10.29
230,Karoi,0,ZW,1590699540,81,-16.81,29.69,58.62,3.31
231,Yangambi,92,CD,1590699540,91,0.81,24.43,73.24,0.92
232,Lavrentiya,98,RU,1590699540,93,65.58,-171.0,33.28,5.93
233,Cervo,0,ES,1590699540,79,43.67,-7.41,66.0,1.01
234,Kamenka,2,RU,1590699540,80,51.32,42.77,62.01,1.99
235,Richards Bay,0,ZA,1590699541,47,-28.78,32.04,59.63,6.38
236,Nouadhibou,0,MR,1590699306,60,20.93,-17.03,73.4,18.34
237,Tessalit,74,ML,1590699541,28,20.2,1.01,87.64,3.78
238,Atar,6,MR,1590699541,12,20.52,-13.05,90.75,4.81
239,Bose,40,IT,1590699541,64,45.46,8.01,69.8,6.93
240,Aykhal,90,RU,1590699541,74,66.0,111.5,28.4,4.47
241,Port Lincoln,0,AU,1590699541,68,-34.73,135.87,54.39,13.27
242,Carnot,88,CF,1590699542,85,4.94,15.87,72.48,0.13
243,Airai,100,TL,1590699542,100,-8.93,125.41,57.38,2.91
244,Comodoro Rivadavia,0,AR,1590699542,62,-45.87,-67.5,51.8,3.36
245,Ngunguru,100,NZ,1590699542,3,-35.62,174.5,57.99,5.99
246,Kupang,42,ID,1590699542,80,-10.17,123.58,76.39,7.63
247,Kuytun,9,RU,1590699542,88,54.34,101.5,34.72,5.75
248,Najrān,0,SA,1590699542,21,17.49,44.13,82.4,2.44
249,Jaisalmer,0,IN,1590699542,55,26.91,70.92,83.91,25.37
250,Fort Nelson,75,CA,1590699543,45,58.81,-122.7,64.4,2.24
251,Terra Santa,79,BR,1590699543,76,-2.1,-56.49,83.93,2.66
252,Niquelândia,0,BR,1590699543,60,-14.47,-48.46,72.03,2.95
253,Ibrā’,25,OM,1590699543,63,22.69,58.53,81.28,3.33
254,Kyren,99,RU,1590699543,79,51.68,102.14,37.47,1.16
255,Sirte,0,LY,1590699543,66,31.21,16.59,66.02,12.73
256,Severomuysk,56,RU,1590699543,94,56.15,113.43,30.06,2.35
257,Namatanai,99,PG,1590699543,77,-3.67,152.43,80.65,2.1
258,Pozo Colorado,0,PY,1590699544,51,-23.49,-58.8,72.0,5.17
259,Hay River,40,CA,1590699489,42,60.82,-115.8,48.2,17.22
260,Trebisacce,20,IT,1590699544,67,39.87,16.53,62.6,3.36
261,Rabo de Peixe,20,PT,1590699544,67,37.8,-25.58,60.8,13.87
262,Springbok,0,ZA,1590699544,45,-29.66,17.89,50.14,1.01
263,Harlingen,1,US,1590699469,52,26.19,-97.7,95.0,13.87
264,Petropavlovsk-Kamchatskiy,51,RU,1590699544,75,53.05,158.65,41.0,2.24
265,Tandil,87,AR,1590699544,74,-37.32,-59.13,57.0,1.01
266,Vaitape,24,PF,1590699545,75,-16.52,-151.75,82.89,14.67
267,Mizdah,3,LY,1590699545,56,31.45,12.98,62.02,19.22
268,Cartagena,75,CO,1590699545,70,10.4,-75.51,87.8,9.17
269,Tomatlán,0,MX,1590699545,47,19.93,-105.25,87.13,13.29
270,Beringovskiy,100,RU,1590699545,97,63.05,179.32,34.56,12.93
271,São Filipe,0,CV,1590699545,67,14.9,-24.5,76.73,6.4
272,Byron Bay,75,AU,1590699545,93,-28.65,153.62,60.8,6.93
273,Atasū,0,KZ,1590699545,40,48.68,71.64,57.09,8.99
274,Okhotsk,100,RU,1590699545,90,59.38,143.3,37.58,8.41
275,Sittwe,1,MM,1590699546,78,20.15,92.9,83.05,2.15
276,Chegutu,0,ZW,1590699546,50,-18.13,30.14,55.15,2.17
277,Bama,92,NG,1590699546,21,11.52,13.69,93.74,7.9
278,Culebra,75,PR,1590699546,88,18.3,-65.3,84.2,3.36
279,Baruun-Urt,78,MN,1590699546,83,46.68,113.28,52.66,13.42
280,Izhma,24,RU,1590699546,67,65.01,53.91,48.36,5.12
281,Kungälv,34,SE,1590699547,76,57.87,11.98,50.0,1.41
282,Avila,0,ES,1590699547,47,40.58,-5.0,66.0,5.7
283,Paracuru,78,BR,1590699547,77,-3.41,-39.03,82.99,15.01
284,Cayhagan,7,PH,1590699547,67,9.67,122.43,81.25,4.43
285,Ambilobe,0,MG,1590699547,87,-13.2,49.05,70.66,2.26
286,Faanui,30,PF,1590699547,76,-16.48,-151.75,82.06,14.74
287,Beloretsk,20,RU,1590699547,82,53.96,58.4,62.6,11.18
288,Gijang,0,KR,1590699547,72,35.24,129.21,59.0,6.93
289,Bandarbeyla,100,SO,1590699548,79,9.49,50.81,81.79,25.39
290,Lauenburg,62,DE,1590699548,65,53.37,10.56,55.0,4.59
291,Buchanan,100,LR,1590699548,87,5.88,-10.05,79.97,6.58
292,Khorramabad,0,IR,1590699548,21,33.49,48.36,73.06,2.08
293,Ocós,75,GT,1590699548,70,14.51,-92.19,91.4,11.41
294,Bealanana,71,MG,1590699548,91,-14.55,48.73,59.7,4.83
295,Ust-Maya,72,RU,1590699549,71,60.42,134.53,40.84,8.37
296,Turukhansk,39,RU,1590699549,73,65.82,87.98,39.79,1.34
297,Port Shepstone,16,ZA,1590699549,39,-30.74,30.45,61.66,8.93
298,Penha,0,BR,1590699549,68,-26.77,-48.65,68.0,10.29
299,Choma,0,ZM,1590699549,39,-16.81,26.95,55.33,2.24
300,Prince Rupert,90,CA,1590699549,82,54.32,-130.32,55.4,2.24
301,Perth,40,AU,1590699549,93,-31.93,115.83,60.01,13.87
302,Roald,67,NO,1590699549,81,62.58,6.13,48.99,5.82
303,Twin Falls,1,US,1590699550,28,42.56,-114.46,81.0,5.82
304,Elko,1,US,1590699550,20,41.0,-115.5,87.8,6.93
305,Bethel,90,US,1590699550,94,41.37,-73.41,71.01,10.29
306,Envira,99,BR,1590699550,53,-7.3,-70.22,86.49,1.77
307,Texarkana,20,US,1590699550,73,33.43,-94.05,75.2,12.75
308,Aktau,70,KZ,1590699550,88,43.65,51.2,64.4,2.24
309,Meulaboh,100,ID,1590699550,82,4.14,96.13,79.29,2.77
310,Klaksvík,99,FO,1590699550,100,62.23,-6.59,46.4,9.17
311,Nakhon Phanom,100,TH,1590699551,93,17.41,104.78,75.52,1.5
312,Salalah,90,OM,1590699290,94,17.02,54.09,78.8,8.05
313,Kulhudhuffushi,100,MV,1590699551,78,6.62,73.07,83.17,10.89
314,Arica,5,CL,1590699551,68,-18.48,-70.3,68.0,9.17
315,Nur,97,PL,1590699551,75,52.67,22.32,55.0,1.99
316,Oranjemund,0,NA,1590699551,68,-28.55,16.43,56.84,7.83
317,Bariloche,75,AR,1590699552,56,-41.15,-71.31,44.6,9.17
318,Zemio,99,CF,1590699552,82,5.03,25.14,75.07,2.19
319,Malbork,10,PL,1590699549,100,54.04,19.03,48.99,10.11
320,Pundaguitan,67,PH,1590699552,76,6.37,126.17,82.89,11.01
321,Saint-Pierre,2,RE,1590699552,60,-21.34,55.48,71.6,5.82
322,Ilebo,68,CD,1590699552,67,-4.32,20.58,77.86,0.54
323,Les Cayes,100,HT,1590699553,76,18.2,-73.75,82.06,7.05
324,Chapais,90,CA,1590699553,35,49.78,-74.85,84.2,13.87
325,Olafsvik,100,IS,1590699553,96,64.89,-23.71,47.28,14.09
326,Kavaratti,97,IN,1590699553,75,10.57,72.64,85.73,7.74
327,Auki,0,SB,1590699553,80,-8.77,160.7,80.29,4.18
328,Carbonia,5,IT,1590699553,77,39.17,8.52,62.6,5.82
329,Muroto-misakicho,0,JP,1590699553,60,33.28,134.15,68.61,7.11
330,Fereydūnkenār,77,IR,1590699553,88,36.69,52.52,66.2,2.24
331,Boa Vista,75,BR,1590699536,62,2.82,-60.67,86.0,6.93
332,Tucumcari,1,US,1590699554,25,35.17,-103.72,86.0,8.05
333,Bataiporã,0,BR,1590699554,75,-22.3,-53.27,63.86,4.7
334,Antalya Province,75,TR,1590699360,72,36.77,30.72,62.6,6.93
335,Rocha,0,UY,1590699554,90,-34.48,-54.33,54.79,4.5
336,Ilulissat,75,GL,1590699554,69,69.22,-51.1,33.8,6.93
337,Chu,0,KZ,1590699554,32,43.6,73.76,60.57,8.84
338,San Policarpo,61,PH,1590699554,76,12.18,125.51,81.93,4.61
339,Verkhnyaya Inta,100,RU,1590699555,91,65.98,60.31,44.98,15.86
340,Sioux Lookout,90,CA,1590699555,45,50.1,-91.92,62.6,17.22
341,Morondava,0,MG,1590699555,78,-20.28,44.28,73.29,9.31
342,Troitskiy,0,RU,1590699555,78,57.06,63.75,50.79,4.76
343,Palmer,75,US,1590699555,69,42.16,-72.33,77.0,16.11
344,Dicabisagan,31,PH,1590699555,82,17.08,122.42,79.34,6.22
345,Teahupoo,20,PF,1590699555,74,-17.83,-149.27,84.2,6.93
346,Coyhaique,75,CL,1590699555,93,-45.58,-72.07,39.2,5.82
347,Port Blair,99,IN,1590699556,79,11.67,92.75,84.15,8.5
348,Lodwar,8,KE,1590699556,45,3.12,35.6,86.72,20.2
349,Stryn,67,NO,1590699556,70,61.9,6.72,48.2,6.93
350,Los Llanos de Aridane,75,ES,1590699556,77,28.66,-17.92,69.8,13.87
351,Laas,40,IT,1590699556,81,46.62,10.7,46.4,6.93
352,Freeport,90,US,1590699556,78,40.66,-73.58,71.6,16.11
353,Las Lomas,40,PA,1590699556,66,8.43,-82.4,86.0,6.93
354,Ternate,33,ID,1590699556,81,0.8,127.4,81.07,4.85
355,Phalombe,87,MW,1590699557,90,-15.81,35.65,64.98,4.21
356,Cockburn Town,40,TC,1590699557,66,21.46,-71.14,86.0,11.41
357,Bontang,100,ID,1590699557,89,0.13,117.5,74.98,3.67
358,Gore,44,NZ,1590699557,89,-46.1,168.94,42.08,1.16
359,Puerto del Rosario,20,ES,1590699557,68,28.5,-13.86,71.6,13.87
360,Villa Bruzual,95,VE,1590699557,55,9.33,-69.12,88.74,4.76
361,Bathsheba,20,BB,1590699557,69,13.22,-59.52,82.4,17.22
362,Mount Gambier,3,AU,1590699557,93,-37.83,140.77,46.4,9.17
363,Mandera,47,KE,1590699558,65,3.94,41.87,82.6,12.15
364,Barcelona,0,ES,1590699541,77,41.39,2.16,71.01,3.36
365,Itupiranga,75,BR,1590699558,70,-5.13,-49.33,87.8,9.17
366,Eyl,100,SO,1590699558,76,7.98,49.82,83.21,19.44
367,Juba,67,SS,1590699494,73,4.85,31.58,76.96,2.3
368,Puri,40,IN,1590699558,88,19.8,85.85,80.6,14.94
369,Cidreira,0,BR,1590699558,75,-30.18,-50.21,61.03,7.36
370,Loa Janan,99,ID,1590699558,96,-0.58,117.09,73.8,1.45
371,Te Anau,92,NZ,1590699559,83,-45.42,167.72,44.29,1.12
372,Acaraú,48,BR,1590699559,86,-2.89,-40.12,79.9,10.29
373,Loxstedt,20,DE,1590699559,81,53.47,8.65,52.0,6.93
374,Takapau,0,NZ,1590699559,92,-40.03,176.35,45.0,1.01
375,Manaus,40,BR,1590699559,70,-3.1,-60.02,86.0,3.36
376,San Ramon,1,US,1590699556,27,37.78,-121.98,93.0,4.7
377,Bubaque,0,GW,1590699559,82,11.28,-15.83,79.18,15.21
378,Kitsuki,0,JP,1590699559,82,33.42,131.62,60.01,2.82
379,Tiznit Province,0,MA,1590699560,58,29.58,-9.5,72.28,5.35
380,Bambanglipuro,100,ID,1590699560,89,-7.95,110.28,75.13,2.19
381,Inuvik,20,CA,1590699560,24,68.35,-133.72,66.2,8.05
382,Kahului,20,US,1590699406,54,20.89,-156.47,84.2,23.04
383,Denpasar,40,ID,1590699346,100,-8.65,115.22,78.8,1.12
384,Jiamusi,0,CN,1590699560,59,46.83,130.35,60.19,6.82
385,Iqaluit,90,CA,1590699520,73,63.75,-68.51,26.6,10.29
386,Ubinskoye,85,RU,1590699560,63,55.31,79.68,51.37,7.05
387,Sora,1,IT,1590699561,67,41.72,13.61,63.0,1.01
388,Tevaitoa,25,PF,1590699561,75,-16.78,-151.5,82.71,14.99
389,Talnakh,75,RU,1590699561,84,69.49,88.4,35.6,6.71
390,Pictou,96,CA,1590699387,68,45.68,-62.72,73.0,13.0
391,Gull Lake,1,CA,1590699561,33,50.1,-108.48,62.6,14.99
392,Srednekolymsk,0,RU,1590699561,43,67.45,153.68,51.35,21.03
393,Kiryat Gat,3,IL,1590699561,77,31.61,34.76,70.0,7.92
394,Mount Isa,0,AU,1590699561,44,-20.73,139.5,57.2,6.93
395,Soltau,40,DE,1590699562,58,52.98,9.83,55.4,4.7
396,Lagoa,0,PT,1590699562,60,39.05,-27.98,59.72,8.39
397,Baykit,2,RU,1590699562,73,61.67,96.37,38.93,1.77
398,Sørland,75,NO,1590699562,93,67.67,12.69,44.6,10.29
399,Klerksdorp,0,ZA,1590699562,52,-26.85,26.67,44.46,1.81
400,Quatre Cocos,40,MU,1590699304,83,-20.21,57.76,75.2,11.41
401,Ixtapa,5,MX,1590699562,61,20.7,-105.2,82.99,16.11
402,Rio Grande,0,BR,1590699292,64,-32.03,-52.1,68.0,4.7
403,Yulara,0,AU,1590699563,57,-25.24,130.99,50.0,6.93
404,Narsaq,53,GL,1590699563,71,60.92,-46.05,46.4,10.29
405,Şabyā,0,SA,1590699563,70,17.15,42.63,89.6,5.82
406,Souillac,40,MU,1590699563,83,-20.52,57.52,75.2,11.41
407,Manavālakurichi,40,IN,1590699563,88,8.13,77.3,80.6,16.71
408,Mana,100,GF,1590699563,80,5.66,-53.78,79.97,11.32
409,Statesville,90,US,1590699354,83,35.78,-80.89,81.0,3.36
410,Baiyin,4,CN,1590699563,93,36.56,104.21,57.99,4.47
411,Grootfontein,0,NA,1590699306,42,-19.57,18.12,53.26,3.69
412,Fairbanks,90,US,1590699419,45,64.84,-147.72,66.0,5.97
413,Ola,100,RU,1590699564,92,59.58,151.28,36.79,4.9
414,São Gabriel da Cachoeira,92,BR,1590699564,88,-0.13,-67.09,83.14,0.94
415,Russell,40,US,1590699564,48,32.35,-85.2,87.8,8.05
416,Rioblanco,35,CO,1590699564,65,3.53,-75.68,73.06,3.51
417,Peniche,0,PT,1590699425,75,39.36,-9.38,75.0,4.0
418,Kibala,88,TD,1590699564,55,9.11,18.35,85.53,3.2
419,Dandong,0,CN,1590699565,82,40.13,124.39,54.63,2.68
420,Tibati,98,CM,1590699565,91,6.47,12.63,69.94,1.99
421,Barvinkove,54,UA,1590699565,91,48.91,37.02,61.72,7.87
422,Kloulklubed,75,PW,1590699565,94,7.04,134.26,77.0,5.06
423,Rehoboth,0,NA,1590699565,38,-23.32,17.08,51.64,2.24
424,Gerāsh,0,IR,1590699565,35,27.67,54.14,86.0,5.06
425,Payo,98,ID,1590699565,95,-3.75,103.64,73.62,1.19
426,Tromsø,90,NO,1590699565,86,69.65,18.96,41.0,11.41
427,Bang Rakam,95,TH,1590699566,63,16.76,100.12,87.01,3.13
428,Abu Dhabi,0,AE,1590699560,49,24.47,54.37,91.4,4.7
429,Neiafu,20,TO,1590699566,88,-18.65,-173.98,77.0,4.7
430,Babstovo,0,RU,1590699566,63,48.12,132.48,60.8,4.25
431,Nanortalik,98,GL,1590699566,83,60.14,-45.24,36.57,14.29
432,Aketi,100,CD,1590699566,94,2.74,23.78,73.87,2.06
433,Barra Patuca,100,HN,1590699566,78,15.8,-84.28,84.61,11.61
434,Daru,100,PG,1590699567,88,-9.08,143.21,78.28,13.22
435,Asău,100,RO,1590699567,88,46.43,26.4,50.0,4.36
436,Vestmanna,100,FO,1590699567,100,62.16,-7.17,46.4,9.17
437,Akita,29,JP,1590699567,85,39.72,140.12,59.0,3.18
438,Aksarka,100,RU,1590699567,90,66.56,67.8,48.38,17.78
439,Esim,100,GH,1590699567,85,4.87,-2.24,80.44,7.31
440,Tuatapere,89,NZ,1590699567,85,-46.13,167.68,47.84,4.54
441,Australind,0,AU,1590699567,77,-33.27,115.72,60.01,17.6
442,Kifrī,51,IQ,1590699568,14,34.7,44.97,93.63,13.82
443,Fortuna,20,US,1590699568,88,40.6,-124.16,69.01,11.41
444,Lyngdal,0,NO,1590699568,75,58.14,7.07,51.01,5.01
445,Jérémie,100,HT,1590699568,76,18.65,-74.12,83.28,7.34
446,Chekhov,100,RU,1590699568,81,55.14,37.47,57.0,3.87
447,Ancud,16,CL,1590699568,75,-41.87,-73.82,48.0,4.7
448,Stornoway,100,GB,1590699568,93,58.21,-6.39,55.99,3.36
449,Baker City,1,US,1590699454,31,44.77,-117.83,78.8,3.36
450,Arrifes,20,PT,1590699569,67,37.77,-25.7,60.8,13.87
451,Goundam,61,ML,1590699569,29,16.41,-3.67,91.78,9.53
452,Longyearbyen,75,SJ,1590699294,80,78.22,15.64,39.2,4.7
453,Lata,63,PT,1590699569,66,40.16,-8.33,75.0,1.99
454,Agüimes,20,ES,1590699569,77,27.91,-15.45,70.0,21.92
455,Otane,0,NZ,1590699569,79,-39.88,176.63,45.84,1.03
456,Thinadhoo,100,MV,1590699570,81,0.53,72.93,82.08,17.6
457,Poysdorf,100,AT,1590699570,80,48.67,16.63,53.01,1.99
458,Giyani,0,ZA,1590699570,68,-23.3,30.72,56.35,5.28
459,Santa Isabel,0,BR,1590699570,45,-23.32,-46.22,68.0,9.17
460,Lovozero,42,RU,1590699570,91,68.0,35.01,36.61,5.08
461,Bugama,100,NG,1590699571,89,4.73,6.86,79.21,5.79
462,Huarmey,38,PE,1590699571,71,-10.07,-78.15,72.34,7.56
463,Obihiro,95,JP,1590699571,69,42.92,143.2,57.56,6.02
464,Tual,100,ID,1590699571,81,-5.67,132.75,82.6,23.76
465,Bilma,10,NE,1590699571,15,18.69,12.92,89.94,7.07
466,Myshkin,65,RU,1590699571,91,57.79,38.45,51.19,4.88
467,Örnsköldsvik,36,SE,1590699571,57,63.29,18.72,48.2,14.99
468,Alyangula,71,AU,1590699571,93,-13.85,136.42,60.8,10.89
469,Chongwe,0,ZM,1590699572,72,-15.33,28.68,60.8,5.82
470,Muravlenko,100,RU,1590699572,75,63.79,74.52,50.77,25.55
471,Waipawa,8,NZ,1590699572,87,-41.41,175.52,52.0,2.17
472,Artsvaberd,96,AM,1590699572,78,40.83,45.47,60.87,3.6
473,Bonavista,100,CA,1590699572,81,48.65,-53.11,55.99,7.0
474,Krasnosel'kup,82,RU,1590699572,64,65.7,82.47,46.72,11.81
475,Kampot,40,KH,1590699572,94,10.62,104.18,80.6,1.12
476,Bilibino,0,RU,1590699572,67,68.05,166.44,40.19,4.85
477,Shambu,89,ET,1590699573,100,9.57,37.1,54.28,3.74
478,Nacozari,6,MX,1590699573,65,25.34,-108.26,84.99,5.01
479,Buala,42,SB,1590699573,75,-8.14,159.59,82.94,5.5
480,Zhaotong,33,CN,1590699573,92,27.32,103.72,47.52,2.39
481,Dayong,90,CN,1590699573,73,25.02,118.29,75.2,2.24
482,Dunedin,100,NZ,1590699541,90,-45.87,170.5,45.0,1.99
483,Puga,5,MX,1590699573,42,21.58,-104.82,86.0,10.29
484,Touho,24,NC,1590699573,79,-20.78,165.23,75.18,9.53
485,Barra dos Coqueiros,75,BR,1590699574,83,-10.91,-37.04,78.8,11.41
486,Paamiut,74,GL,1590699574,87,61.99,-49.67,34.77,19.89
487,Kuril'sk,67,RU,1590699574,86,45.23,147.88,38.59,10.13
488,Aklavik,20,CA,1590699574,49,68.22,-135.01,62.6,5.82
489,Batagay,100,RU,1590699574,97,67.63,134.63,28.0,9.75
490,Esperance,0,AU,1590699574,62,-33.87,121.9,55.4,17.22
491,Sursk,22,RU,1590699574,90,53.08,45.68,53.76,7.56
492,Vilhena,83,BR,1590699575,67,-12.74,-60.15,76.5,0.02
493,Neklyudovo,15,RU,1590699575,82,56.41,43.98,57.99,2.24
494,Departamento de Maldonado,0,UY,1590699575,77,-34.67,-54.92,64.0,8.05
495,Prainha,89,BR,1590699575,87,-1.8,-53.48,80.28,2.98
496,Quelimane,40,MZ,1590699575,83,-17.88,36.89,75.2,2.24
497,Changzhou,100,CN,1590699575,73,31.78,119.97,78.01,1.01
498,North Bend,1,US,1590699575,77,43.41,-124.22,81.0,14.99
499,Puerto Lempira,75,HN,1590699576,70,15.27,-83.77,89.6,11.41
500,Ilo,82,PE,1590699576,78,-17.64,-71.34,66.11,0.45
501,Tenabo,20,MX,1590699576,37,20.05,-90.23,98.6,11.41
502,Venado Tuerto,0,AR,1590699576,56,-33.75,-61.97,64.62,4.59
503,Valdivia,75,CL,1590699576,87,-39.81,-73.25,50.0,2.24
504,Orange,20,US,1590699550,60,33.7,-117.77,80.01,9.17
505,Yar-Sale,100,RU,1590699576,85,66.83,70.83,48.2,20.36
506,Talaya,0,RU,1590699577,76,61.38,152.75,37.06,7.9
507,Kalmar,100,SE,1590699577,76,56.66,16.36,54.0,4.7
508,Croy,0,CH,1590699577,63,46.69,6.48,60.8,5.82
509,Vangaindrano,52,MG,1590699577,90,-23.35,47.6,70.07,2.82
510,Abay,0,KZ,1590699577,42,49.63,72.85,41.0,8.95
511,Nyakabindi,100,TZ,1590699577,67,-2.63,33.98,66.6,4.79
512,Terrace,75,CA,1590699569,87,54.52,-128.6,55.4,9.17
513,Celestún,8,MX,1590699577,67,20.87,-90.4,87.31,11.97
514,Tura,24,IN,1590699578,96,25.52,90.22,70.88,3.69
515,Niono,76,ML,1590699578,29,14.25,-5.99,93.06,8.7
516,Moskovskiy,86,RU,1590699578,66,55.6,37.35,57.0,2.8
517,Abalak,29,RU,1590699578,88,58.13,68.59,52.99,7.96
518,Qaqortoq,26,GL,1590699332,80,60.72,-46.03,46.4,10.29
519,Guerrero Negro,5,MX,1590699578,44,27.98,-114.06,77.94,15.97
520,Xining,0,CN,1590699578,56,36.62,101.77,46.83,2.21
521,Kohima,100,IN,1590699579,98,25.67,94.12,58.77,2.89
522,Puerto Baquerizo Moreno,75,EC,1590699579,78,-0.9,-89.6,80.6,9.17
523,Kadoma,0,JP,1590699579,71,34.73,135.58,62.01,4.7
524,Leshan,78,CN,1590699579,81,29.56,103.76,62.89,1.54
525,Cocorit,5,MX,1590699579,38,27.58,-109.97,93.2,8.05
526,Lubbock,40,US,1590699579,26,33.6,-101.83,82.4,21.92
527,Gemeente Wageningen,90,NL,1590699330,58,51.97,5.67,55.4,12.75
528,Qasigiannguit,75,GL,1590699579,69,68.82,-51.19,33.8,6.93
529,Seshcha,100,RU,1590699580,90,53.74,33.34,52.54,9.84
530,Markova,90,UA,1590699580,91,48.68,24.41,46.44,6.11
531,Dzaoudzi,99,YT,1590699580,78,-12.79,45.27,78.8,9.17
532,Irbit,0,RU,1590699580,79,57.67,63.07,50.97,6.96
533,Itatiaia,0,BR,1590699580,82,-22.5,-44.56,56.82,2.28
534,Soyo,83,AO,1590699580,86,-6.13,12.37,77.04,9.33
535,Stykkisholmur,100,IS,1590699581,91,65.08,-22.73,48.27,10.07
536,Sarāhan,97,IN,1590699581,53,31.52,77.8,53.37,7.02
537,Porto Walter,78,BR,1590699581,43,-8.27,-72.74,88.93,0.81
538,Horadiz,32,AZ,1590699581,72,39.45,47.34,62.6,2.48
539,Yining,100,CN,1590699581,77,29.04,114.56,70.09,0.92
540,Charters Towers,0,AU,1590699581,79,-20.1,146.27,56.55,3.58
541,Abhā,0,SA,1590699582,68,18.22,42.51,69.8,4.18
542,Songea,48,TZ,1590699582,83,-10.68,35.65,64.26,2.44
543,Lerwick,98,GB,1590699582,93,60.15,-1.15,51.8,4.7
544,Noumea,0,NC,1590699582,88,-22.28,166.46,73.0,2.24
545,Belyy Yar,86,RU,1590699582,93,53.6,91.39,46.4,2.08
546,Oussouye,2,SN,1590699582,69,12.48,-16.55,82.4,9.17
547,Isverna,99,RO,1590699582,84,44.98,22.63,47.84,5.19
548,Padang,75,ID,1590699349,82,-0.95,100.35,78.71,3.38
549,Uvat,23,RU,1590699583,87,59.14,68.9,50.23,6.67
550,Chitungwiza,0,ZW,1590699583,91,-18.01,31.08,54.21,5.35
551,Cayenne,100,GF,1590699498,100,4.93,-52.33,75.2,14.99
552,Panzhihua,15,CN,1590699583,82,26.59,101.71,54.14,0.69
553,Khovd,81,MN,1590699583,55,48.01,91.64,44.29,2.91
554,Lake Shasta,1,US,1590699583,32,40.68,-122.37,95.0,5.32
